[{"mabr": 11.406844106463877, "b": 789.0, "name": "Atchison Police Department", "nb_arr_rate": 111.12197028928851, "ap_abbr": "Kan.", "mibr": 48.162230671736374, "pct_black": 0.0715906, "p": 11021.0, "state": "KS", "arr_rate_disproportion": 3.0567354778155664, "b_arr_rate": 339.6704689480355, "lat": 39.5636481, "lng": -95.1365945, "minbr": 15.246286161063331, "manbr": 1.8569194683346364}, {"mabr": 0.9124087591240875, "b": 1096.0, "name": "Butler County Sheriff's Office", "nb_arr_rate": 8.860212398122993, "ap_abbr": "Kan.", "mibr": 3.64963503649635, "pct_black": 0.016636308, "p": 65880.0, "state": "KS", "arr_rate_disproportion": 1.5446730588265214, "b_arr_rate": 13.686131386861312, "lat": 37.7736811, "lng": -96.8387616, "minbr": 1.759693751543591, "manbr": 0.5093850333415658}, {"mabr": 0.0, "b": 1004.0, "name": "Cowley County Sheriff's Office", "nb_arr_rate": 8.865097572719291, "ap_abbr": "Kan.", "mibr": 5.9760956175298805, "pct_black": 0.027650023, "p": 36311.0, "state": "KS", "arr_rate_disproportion": 1.7976401104845792, "b_arr_rate": 15.936254980079681, "lat": 37.2345068, "lng": -96.8372468, "minbr": 1.2462117993599002, "manbr": 0.538136913359957}, {"mabr": 0.0, "b": 785.0, "name": "Crawford County Sheriff's Office", "nb_arr_rate": 17.02782341130147, "ap_abbr": "Kan.", "mibr": 1.2738853503184713, "pct_black": 0.020059283, "p": 39134.0, "state": "KS", "arr_rate_disproportion": 6.882703055959266, "b_arr_rate": 117.19745222929936, "lat": 37.5056283, "lng": -94.8539407, "minbr": 0.9126704738063574, "manbr": 0.33899189027093274}, {"mabr": 15.105740181268882, "b": 662.0, "name": "Pittsburg Police Department", "nb_arr_rate": 71.78989320934035, "ap_abbr": "Kan.", "mibr": 36.25377643504532, "pct_black": 0.032718826, "p": 20233.0, "state": "KS", "arr_rate_disproportion": 3.8506122931696254, "b_arr_rate": 276.43504531722056, "lat": 37.4145509, "lng": -94.6979995, "minbr": 19.51867559143631, "manbr": 1.9927443666649636}, {"mabr": 0.22951572182694513, "b": 4357.0, "name": "Douglas County Sheriff's Office", "nb_arr_rate": 22.889291718716247, "ap_abbr": "Kan.", "mibr": 1.3770943309616708, "pct_black": 0.039313879, "p": 110826.0, "state": "KS", "arr_rate_disproportion": 5.123904020047449, "b_arr_rate": 117.28253385356896, "lat": 38.8965726, "lng": -95.2905294, "minbr": 0.44144304915045696, "manbr": 0.11270886361288263}, {"mabr": 10.744810744810746, "b": 4095.0, "name": "Lawrence Police Department", "nb_arr_rate": 102.42016565327715, "ap_abbr": "Kan.", "mibr": 46.398046398046404, "pct_black": 0.04672364, "p": 87643.0, "state": "KS", "arr_rate_disproportion": 4.008005727019401, "b_arr_rate": 410.50061050061055, "lat": 38.960323, "lng": -95.2632232, "minbr": 18.51630200603246, "manbr": 1.7594676114329488}, {"mabr": 0.0, "b": 841.0, "name": "Finney County Sheriff's Office", "nb_arr_rate": 9.433699735633782, "ap_abbr": "Kan.", "mibr": 9.512485136741974, "pct_black": 0.022868175, "p": 36776.0, "state": "KS", "arr_rate_disproportion": 1.6385711629995197, "b_arr_rate": 15.457788347205708, "lat": 38.0498552, "lng": -100.7399289, "minbr": 0.9461527758452762, "manbr": 0.86266870738834}, {"mabr": 13.175230566534914, "b": 759.0, "name": "Garden City Police Department", "nb_arr_rate": 131.31781149851346, "ap_abbr": "Kan.", "mibr": 72.46376811594203, "pct_black": 0.028471753, "p": 26658.0, "state": "KS", "arr_rate_disproportion": 2.74906589900901, "b_arr_rate": 361.0013175230566, "lat": 37.977856, "lng": -100.8604147, "minbr": 25.676667052781962, "manbr": 2.8572531757982933}, {"mabr": 1.3908205841446455, "b": 719.0, "name": "Ford County Sheriff's Office", "nb_arr_rate": 21.461559358869874, "ap_abbr": "Kan.", "mibr": 4.172461752433936, "pct_black": 0.021242023, "p": 33848.0, "state": "KS", "arr_rate_disproportion": 3.88831182549603, "b_arr_rate": 83.44923504867873, "lat": 37.6883653, "lng": -99.884734, "minbr": 0.9357360620604305, "manbr": 0.6338857194602916}, {"mabr": 14.88095238095238, "b": 672.0, "name": "Dodge City Police Department", "nb_arr_rate": 123.10634468276587, "ap_abbr": "Kan.", "mibr": 55.0595238095238, "pct_black": 0.024579371, "p": 27340.0, "state": "KS", "arr_rate_disproportion": 2.8527406698286986, "b_arr_rate": 351.19047619047615, "lat": 37.7606703, "lng": -100.0178633, "minbr": 19.686515674216288, "manbr": 2.4748762561871906}, {"mabr": 0.4747586643456243, "b": 6319.0, "name": "Geary County Sheriff's Department", "nb_arr_rate": 5.491566522839925, "ap_abbr": "Kan.", "mibr": 0.7912644405760405, "pct_black": 0.183895, "p": 34362.0, "state": "KS", "arr_rate_disproportion": 1.4408719939658379, "b_arr_rate": 7.912644405760405, "lat": 39.0021553, "lng": -96.7680381, "minbr": 0.463573797382591, "manbr": 0.17829761437791963}, {"mabr": 10.963646855164455, "b": 5199.0, "name": "Junction City Police Department", "nb_arr_rate": 84.4441996254269, "ap_abbr": "Kan.", "mibr": 14.233506443546837, "pct_black": 0.222626643, "p": 23353.0, "state": "KS", "arr_rate_disproportion": 2.1889394405341887, "b_arr_rate": 184.84323908443932, "lat": 39.0273431, "lng": -96.8526428, "minbr": 5.563512173625647, "manbr": 4.516910873636664}, {"mabr": 1.773049645390071, "b": 564.0, "name": "Harvey County Sheriff's Office", "nb_arr_rate": 12.456037514654163, "ap_abbr": "Kan.", "mibr": 1.773049645390071, "pct_black": 0.0162611, "p": 34684.0, "state": "KS", "arr_rate_disproportion": 6.405506883604505, "b_arr_rate": 79.7872340425532, "lat": 38.0501436, "lng": -97.4367065, "minbr": 1.3481828839390386, "manbr": 0.29308323563892147}, {"mabr": 0.08461668641056017, "b": 23636.0, "name": "Johnson County Sheriff's Office", "nb_arr_rate": 3.534770422424276, "ap_abbr": "Kan.", "mibr": 0.9730918937214419, "pct_black": 0.043434238, "p": 544179.0, "state": "KS", "arr_rate_disproportion": 5.852934520480917, "b_arr_rate": 20.68877982738196, "lat": 38.8839065, "lng": -94.8223295, "minbr": 0.3515559713606753, "manbr": 0.03650034675329416}, {"mabr": 8.156606851549755, "b": 613.0, "name": "Leawood Police Department", "nb_arr_rate": 53.36916874640046, "ap_abbr": "Kan.", "mibr": 60.35889070146819, "pct_black": 0.019236201, "p": 31867.0, "state": "KS", "arr_rate_disproportion": 21.82465055687913, "b_arr_rate": 1164.7634584013051, "lat": 38.9072625, "lng": -94.6252403, "minbr": 8.638894221539642, "manbr": 0.1599795226211045}, {"mabr": 7.5075075075075075, "b": 666.0, "name": "Merriam Police Department", "nb_arr_rate": 63.07439295733772, "ap_abbr": "Kan.", "mibr": 25.525525525525524, "pct_black": 0.060528947, "p": 11003.0, "state": "KS", "arr_rate_disproportion": 2.7852138948764713, "b_arr_rate": 175.67567567567568, "lat": 39.017622, "lng": -94.6939511, "minbr": 9.964206249395376, "manbr": 1.3543581309857793}, {"mabr": 4.553734061930784, "b": 3294.0, "name": "Shawnee Police Department", "nb_arr_rate": 39.24297717049987, "ap_abbr": "Kan.", "mibr": 29.143897996357012, "pct_black": 0.052950538, "p": 62209.0, "state": "KS", "arr_rate_disproportion": 5.848389018095184, "b_arr_rate": 229.50819672131146, "lat": 39.0177788, "lng": -94.8053217, "minbr": 7.638122719171688, "manbr": 0.4922345752355088}, {"mabr": 4.627981488074047, "b": 2809.0, "name": "Lenexa Police Department", "nb_arr_rate": 74.1940459663736, "ap_abbr": "Kan.", "mibr": 51.619793520825915, "pct_black": 0.058290102, "p": 48190.0, "state": "KS", "arr_rate_disproportion": 5.431573151046273, "b_arr_rate": 402.9903880384478, "lat": 38.965267, "lng": -94.8039144, "minbr": 15.931777616182984, "manbr": 0.9254974548819991}, {"mabr": 5.281690140845071, "b": 568.0, "name": "Gardner Police Department", "nb_arr_rate": 58.36701697655619, "ap_abbr": "Kan.", "mibr": 21.126760563380284, "pct_black": 0.029702453, "p": 19123.0, "state": "KS", "arr_rate_disproportion": 3.257676251414303, "b_arr_rate": 190.14084507042256, "lat": 38.8158565, "lng": -94.9299826, "minbr": 5.1199137698733495, "manbr": 0.9700889248181084}, {"mabr": 0.0, "b": 1008.0, "name": "Labette County Sheriff's Office ", "nb_arr_rate": 10.049031506383805, "ap_abbr": "Kan.", "mibr": 4.9603174603174605, "pct_black": 0.046651548, "p": 21607.0, "state": "KS", "arr_rate_disproportion": 3.1591135649106663, "b_arr_rate": 31.746031746031747, "lat": 37.1914676, "lng": -95.2974732, "minbr": 1.4563813777367833, "manbr": 0.24273022962279722}, {"mabr": 8.820286659316427, "b": 907.0, "name": "Parsons Police Department", "nb_arr_rate": 65.15167309496508, "ap_abbr": "Kan.", "mibr": 35.28114663726571, "pct_black": 0.086380952, "p": 10500.0, "state": "KS", "arr_rate_disproportion": 3.4860560088202868, "b_arr_rate": 227.12238147739802, "lat": 37.3340128, "lng": -95.2649977, "minbr": 7.922443448347754, "manbr": 2.3975815698947147}, {"mabr": 0.0, "b": 7171.0, "name": "Leavenworth County Sheriff's Office", "nb_arr_rate": 19.274212233549584, "ap_abbr": "Kan.", "mibr": 0.418351694324362, "pct_black": 0.094074278, "p": 76227.0, "state": "KS", "arr_rate_disproportion": 3.096616401251346, "b_arr_rate": 59.684841723608976, "lat": 39.1895108, "lng": -95.038977, "minbr": 0.4344300278035218, "manbr": 0.49235403151065804}, {"mabr": 7.868115399025852, "b": 5338.0, "name": "Leavenworth Police Department", "nb_arr_rate": 58.16868919867616, "ap_abbr": "Kan.", "mibr": 11.989509179467966, "pct_black": 0.151428328, "p": 35251.0, "state": "KS", "arr_rate_disproportion": 2.846980013178124, "b_arr_rate": 165.60509554140128, "lat": 39.3227166, "lng": -94.9250132, "minbr": 5.3488449837863135, "manbr": 2.0058168689198674}, {"mabr": 3.351206434316354, "b": 1492.0, "name": "Lansing Police Department", "nb_arr_rate": 27.32016780927044, "ap_abbr": "Kan.", "mibr": 4.021447721179625, "pct_black": 0.132445628, "p": 11265.0, "state": "KS", "arr_rate_disproportion": 1.5455688767057263, "b_arr_rate": 42.22520107238606, "lat": 39.242934, "lng": -94.897884, "minbr": 1.637163614038678, "manbr": 1.4325181622838432}, {"mabr": 1.221001221001221, "b": 819.0, "name": "Lyon County Sheriff's Office", "nb_arr_rate": 5.993124638739314, "ap_abbr": "Kan.", "mibr": 4.884004884004884, "pct_black": 0.024309884, "p": 33690.0, "state": "KS", "arr_rate_disproportion": 2.648537587623882, "b_arr_rate": 15.873015873015873, "lat": 38.4554978, "lng": -96.1615888, "minbr": 1.9774269112591647, "manbr": 0.21295366736637159}, {"mabr": 7.585335018963337, "b": 791.0, "name": "Emporia Police Department ", "nb_arr_rate": 83.97927461139896, "ap_abbr": "Kan.", "mibr": 99.87357774968395, "pct_black": 0.031746669, "p": 24916.0, "state": "KS", "arr_rate_disproportion": 4.380708813240765, "b_arr_rate": 367.8887484197219, "lat": 38.4020887, "lng": -96.191492, "minbr": 25.243523316062177, "manbr": 1.5336787564766838}, {"mabr": 1.4570179698882952, "b": 2059.0, "name": "Montgomery County Sheriff's Office", "nb_arr_rate": 33.161738297617624, "ap_abbr": "Kan.", "mibr": 0.9713453132588634, "pct_black": 0.058047419, "p": 35471.0, "state": "KS", "arr_rate_disproportion": 3.676038804719265, "b_arr_rate": 121.90383681398737, "lat": 37.1895369, "lng": -95.7424028, "minbr": 1.4964683347300372, "manbr": 0.5387286005028133}, {"mabr": 29.166666666666668, "b": 1200.0, "name": "Coffeyville Police Department", "nb_arr_rate": 105.6624518966465, "ap_abbr": "Kan.", "mibr": 51.66666666666667, "pct_black": 0.116561438, "p": 10295.0, "state": "KS", "arr_rate_disproportion": 2.8944372181755122, "b_arr_rate": 305.83333333333337, "lat": 37.0412577, "lng": -95.6296457, "minbr": 25.398570643210554, "manbr": 3.4084661902144036}, {"mabr": 6.514657980456026, "b": 614.0, "name": "Independence Police Department", "nb_arr_rate": 80.16687337918593, "ap_abbr": "Kan.", "mibr": 16.286644951140065, "pct_black": 0.064747443, "p": 9483.0, "state": "KS", "arr_rate_disproportion": 3.1083371129344823, "b_arr_rate": 249.185667752443, "lat": 37.233046, "lng": -95.7135392, "minbr": 5.863118728154245, "manbr": 2.7060547976096516}, {"mabr": 2.072538860103627, "b": 1930.0, "name": "Reno County Sheriff's Office", "nb_arr_rate": 26.0302647768492, "ap_abbr": "Kan.", "mibr": 1.0362694300518136, "pct_black": 0.029917378, "p": 64511.0, "state": "KS", "arr_rate_disproportion": 3.2246242807660384, "b_arr_rate": 83.93782383419689, "lat": 37.9481849, "lng": -98.0783463, "minbr": 1.6298876655854013, "manbr": 0.2876272351033061}, {"mabr": 12.081274025260846, "b": 1821.0, "name": "Hutchinson Police Department", "nb_arr_rate": 74.4181425271368, "ap_abbr": "Kan.", "mibr": 46.67764964305327, "pct_black": 0.043274715, "p": 42080.0, "state": "KS", "arr_rate_disproportion": 3.2616210227951745, "b_arr_rate": 242.72377814387698, "lat": 38.0681225, "lng": -97.9119445, "minbr": 14.08380734742542, "manbr": 2.6081124717454482}, {"mabr": 7.726269315673289, "b": 4530.0, "name": "Riley County Police Department", "nb_arr_rate": 68.42381917849366, "ap_abbr": "Kan.", "mibr": 46.136865342163354, "pct_black": 0.063699641, "p": 71115.0, "state": "KS", "arr_rate_disproportion": 3.8617898528394257, "b_arr_rate": 264.2384105960265, "lat": 39.2912114, "lng": -96.7274889, "minbr": 19.028309679357214, "manbr": 1.0212510325148307}, {"mabr": 2.7563395810363835, "b": 1814.0, "name": "Saline County Sheriff's Office", "nb_arr_rate": 4.81484235574063, "ap_abbr": "Kan.", "mibr": 1.6538037486218302, "pct_black": 0.032622379, "p": 55606.0, "state": "KS", "arr_rate_disproportion": 2.8623362691719914, "b_arr_rate": 13.781697905181918, "lat": 38.7863268, "lng": -97.6501534, "minbr": 0.594883997620464, "manbr": 0.1673111243307555}, {"mabr": 13.468013468013467, "b": 1782.0, "name": "Salina Police Department", "nb_arr_rate": 127.86064235166032, "ap_abbr": "Kan.", "mibr": 75.75757575757575, "pct_black": 0.037353009, "p": 47707.0, "state": "KS", "arr_rate_disproportion": 4.274785968984425, "b_arr_rate": 546.5768799102133, "lat": 38.8140031, "lng": -97.6144634, "minbr": 18.878606423516604, "manbr": 1.567773543821448}, {"mabr": 0.30324690796456344, "b": 46167.0, "name": "Sedgwick County Sheriff's Office", "nb_arr_rate": 4.4869725208868685, "ap_abbr": "Kan.", "mibr": 0.6064938159291269, "pct_black": 0.092636923, "p": 498365.0, "state": "KS", "arr_rate_disproportion": 1.7909722031176096, "b_arr_rate": 8.03604306106093, "lat": 37.683807, "lng": -97.4594505, "minbr": 0.34055878177258636, "manbr": 0.08182256445185516}, {"mabr": 15.111740132855479, "b": 43807.0, "name": "Wichita Police Department", "nb_arr_rate": 46.248681921426275, "ap_abbr": "Kan.", "mibr": 26.251512315383383, "pct_black": 0.114567642, "p": 382368.0, "state": "KS", "arr_rate_disproportion": 3.869169821680027, "b_arr_rate": 178.94400438286118, "lat": 37.6906938, "lng": -97.3426776, "minbr": 5.505654815528073, "manbr": 2.380664045770186}, {"mabr": 0.0, "b": 774.0, "name": "Seward County Sheriff's Office", "nb_arr_rate": 19.25331409504915, "ap_abbr": "Kan.", "mibr": 1.2919896640826873, "pct_black": 0.033722551, "p": 22952.0, "state": "KS", "arr_rate_disproportion": 4.227601982462828, "b_arr_rate": 81.3953488372093, "lat": 37.1805849, "lng": -100.8547406, "minbr": 2.7504734421498784, "manbr": 0.5410767427180089}, {"mabr": 9.22266139657444, "b": 759.0, "name": "Liberal Police Department", "nb_arr_rate": 79.78346655873723, "ap_abbr": "Kan.", "mibr": 81.68642951251647, "pct_black": 0.036979294, "p": 20525.0, "state": "KS", "arr_rate_disproportion": 4.871551945247184, "b_arr_rate": 388.66930171278, "lat": 37.0461109, "lng": -100.9289721, "minbr": 13.86218759485986, "manbr": 2.4790043509055955}, {"mabr": 0.06544502617801047, "b": 15280.0, "name": "Shawnee County Sheriff's Office", "nb_arr_rate": 5.029080133289067, "ap_abbr": "Kan.", "mibr": 0.9162303664921466, "pct_black": 0.085874538, "p": 177934.0, "state": "KS", "arr_rate_disproportion": 1.561598330751802, "b_arr_rate": 7.853403141361257, "lat": 39.0418052, "lng": -95.7556639, "minbr": 0.27051286780527994, "manbr": 0.22132871002250176}, {"mabr": 0.22646067133007902, "b": 39742.0, "name": "Wyandotte County Sheriff's Office", "nb_arr_rate": 4.6109559029576355, "ap_abbr": "Kan.", "mibr": 0.8051934980625032, "pct_black": 0.252322149, "p": 157505.0, "state": "KS", "arr_rate_disproportion": 2.619392318020292, "b_arr_rate": 12.077902470937548, "lat": 39.1153842, "lng": -94.7630866, "minbr": 0.21229078742898874, "manbr": 0.033966525988638196}]