[{"mabr": 0.0, "b": 1630.0, "name": "Barren County Sheriff's Office ", "nb_arr_rate": 18.96751597069778, "ap_abbr": "Ky.", "mibr": 4.294478527607362, "pct_black": 0.038650321, "p": 42173.0, "state": "KY", "arr_rate_disproportion": 1.6819197906611247, "b_arr_rate": 31.901840490797547, "lat": 36.9636142, "lng": -85.92499, "minbr": 2.392521520361098, "manbr": 0.07399551093900303}, {"mabr": 2.6785714285714284, "b": 1120.0, "name": "Glasgow Police Department", "nb_arr_rate": 137.51162070034087, "ap_abbr": "Ky.", "mibr": 44.64285714285714, "pct_black": 0.079840319, "p": 14028.0, "state": "KY", "arr_rate_disproportion": 1.4739014084507043, "b_arr_rate": 202.67857142857142, "lat": 37.0048418, "lng": -85.925876, "minbr": 29.206693523396343, "manbr": 1.0845986984815619}, {"mabr": 0.0, "b": 644.0, "name": "Bell County Sheriff's Department", "nb_arr_rate": 27.596534388704672, "ap_abbr": "Ky.", "mibr": 0.0, "pct_black": 0.022446063, "p": 28691.0, "state": "KY", "arr_rate_disproportion": 1.2378906061919208, "b_arr_rate": 34.161490683229815, "lat": 36.7226801, "lng": -83.6810456, "minbr": 2.388847292045495, "manbr": 0.3565443719470888}, {"mabr": 1.0026737967914439, "b": 2992.0, "name": "Boone County Sheriff's Office", "nb_arr_rate": 44.949446981928695, "ap_abbr": "Ky.", "mibr": 8.689839572192513, "pct_black": 0.025182853, "p": 118811.0, "state": "KY", "arr_rate_disproportion": 2.6098838161849454, "b_arr_rate": 117.31283422459893, "lat": 38.9745952, "lng": -84.7314442, "minbr": 4.394788419862026, "manbr": 0.21585404812681858}, {"mabr": 19.91150442477876, "b": 1356.0, "name": "Florence Police Department", "nb_arr_rate": 125.72127994404617, "ap_abbr": "Ky.", "mibr": 28.761061946902654, "pct_black": 0.045273947, "p": 29951.0, "state": "KY", "arr_rate_disproportion": 2.2172941770157664, "b_arr_rate": 278.76106194690266, "lat": 38.9872192, "lng": -84.6470156, "minbr": 21.19251617415632, "manbr": 2.5878650113656234}, {"mabr": 0.0, "b": 1198.0, "name": "Bourbon County Sheriff's Office", "nb_arr_rate": 14.903922925427159, "ap_abbr": "Ky.", "mibr": 0.8347245409015025, "pct_black": 0.059944959, "p": 19985.0, "state": "KY", "arr_rate_disproportion": 1.9602462437395658, "b_arr_rate": 29.21535893155259, "lat": 38.2025623, "lng": -84.2098602, "minbr": 1.1177942194070367, "manbr": 0.0}, {"mabr": 5.0761421319796955, "b": 985.0, "name": "Paris Police Department", "nb_arr_rate": 127.2463002114165, "ap_abbr": "Ky.", "mibr": 34.51776649746193, "pct_black": 0.11516427, "p": 8553.0, "state": "KY", "arr_rate_disproportion": 1.2605953265756862, "b_arr_rate": 160.40609137055839, "lat": 38.2115832, "lng": -84.2686565, "minbr": 30.6553911205074, "manbr": 2.1141649048625792}, {"mabr": 0.7137758743754461, "b": 1401.0, "name": "Boyd County Sheriff's Office", "nb_arr_rate": 32.07245383353067, "ap_abbr": "Ky.", "mibr": 2.8551034975017844, "pct_black": 0.028279036, "p": 49542.0, "state": "KY", "arr_rate_disproportion": 2.158745326247351, "b_arr_rate": 69.23625981441828, "lat": 38.3600037, "lng": -82.6814063, "minbr": 2.409588500446605, "manbr": 0.29081240522631435}, {"mabr": 11.647254575707155, "b": 601.0, "name": "Ashland Police Department", "nb_arr_rate": 119.10069724422522, "ap_abbr": "Ky.", "mibr": 59.900166389351085, "pct_black": 0.027716289, "p": 21684.0, "state": "KY", "arr_rate_disproportion": 2.5985086584088246, "b_arr_rate": 309.4841930116473, "lat": 38.4594922, "lng": -82.6450808, "minbr": 27.700042688421952, "manbr": 2.229284257458616}, {"mabr": 4.517221908526256, "b": 1771.0, "name": "Danville Police Department", "nb_arr_rate": 132.20737869453868, "ap_abbr": "Ky.", "mibr": 25.974025974025974, "pct_black": 0.109199655, "p": 16218.0, "state": "KY", "arr_rate_disproportion": 1.473482015366832, "b_arr_rate": 194.80519480519482, "lat": 37.6399326, "lng": -84.7760416, "minbr": 21.45774209178376, "manbr": 2.0073371634249324}, {"mabr": 1.497005988023952, "b": 668.0, "name": "Caldwell County Sheriff's Office", "nb_arr_rate": 20.37999350438454, "ap_abbr": "Ky.", "mibr": 1.497005988023952, "pct_black": 0.051447936, "p": 12984.0, "state": "KY", "arr_rate_disproportion": 1.1752749481117446, "b_arr_rate": 23.95209580838323, "lat": 37.1486431, "lng": -87.87051, "minbr": 1.3803182851575186, "manbr": 0.24358557973367975}, {"mabr": 5.2631578947368425, "b": 570.0, "name": "Princeton Police Department", "nb_arr_rate": 89.07796492446604, "ap_abbr": "Ky.", "mibr": 35.08771929824562, "pct_black": 0.090061621, "p": 6329.0, "state": "KY", "arr_rate_disproportion": 2.3436989159057493, "b_arr_rate": 208.77192982456143, "lat": 37.1064715, "lng": -87.8848669, "minbr": 11.460322972738323, "manbr": 1.3891300573016148}, {"mabr": 0.0, "b": 1392.0, "name": "Calloway County Sheriff's Office", "nb_arr_rate": 22.849800273750663, "ap_abbr": "Ky.", "mibr": 0.7183908045977012, "pct_black": 0.03742841, "p": 37191.0, "state": "KY", "arr_rate_disproportion": 2.6723742728269118, "b_arr_rate": 61.0632183908046, "lat": 36.6209783, "lng": -88.2740857, "minbr": 1.1452833878041286, "manbr": 0.11173496466381742}, {"mabr": 3.3222591362126246, "b": 1204.0, "name": "Murray Police Department", "nb_arr_rate": 49.76718872830622, "ap_abbr": "Ky.", "mibr": 10.79734219269103, "pct_black": 0.067865397, "p": 17741.0, "state": "KY", "arr_rate_disproportion": 1.7523453615530251, "b_arr_rate": 87.2093023255814, "lat": 36.6130889, "lng": -88.3224339, "minbr": 8.28445304468767, "manbr": 0.5442341416218177}, {"mabr": 0.0, "b": 2290.0, "name": "Campbell County Police Department", "nb_arr_rate": 13.049996592690183, "ap_abbr": "Ky.", "mibr": 5.676855895196506, "pct_black": 0.025349805, "p": 90336.0, "state": "KY", "arr_rate_disproportion": 1.9408059409929275, "b_arr_rate": 25.32751091703057, "lat": 38.9469811, "lng": -84.3795832, "minbr": 1.3515662267451105, "manbr": 0.09086159507530155}, {"mabr": 19.72555746140652, "b": 1166.0, "name": "Newport Police Department", "nb_arr_rate": 505.49372651874955, "ap_abbr": "Ky.", "mibr": 554.0308747855918, "pct_black": 0.076343875, "p": 15273.0, "state": "KY", "arr_rate_disproportion": 3.759719418969624, "b_arr_rate": 1900.514579759863, "lat": 39.0860999, "lng": -84.4869327, "minbr": 155.88005954490677, "manbr": 1.559509463386971}, {"mabr": 0.2546635258165149, "b": 15707.0, "name": "Christian County Sheriff's Office", "nb_arr_rate": 20.89342123334707, "ap_abbr": "Ky.", "mibr": 4.583943464697269, "pct_black": 0.21238591, "p": 73955.0, "state": "KY", "arr_rate_disproportion": 3.4890137642287615, "b_arr_rate": 72.89743426497739, "lat": 36.8933877, "lng": -87.4935542, "minbr": 1.184590028842192, "manbr": 0.08583985716247768}, {"mabr": 5.359269551409289, "b": 10076.0, "name": "City Of Hopkinsville Police Department", "nb_arr_rate": 118.41309706525277, "ap_abbr": "Ky.", "mibr": 46.74473997618102, "pct_black": 0.319093011, "p": 31577.0, "state": "KY", "arr_rate_disproportion": 2.411303979777259, "b_arr_rate": 285.5299722111949, "lat": 36.8392843, "lng": -87.4735439, "minbr": 18.510766941072507, "manbr": 1.3952839402818473}, {"mabr": 7.807807807807808, "b": 1665.0, "name": "Oak Grove Police Department ", "nb_arr_rate": 93.06318681318682, "ap_abbr": "Ky.", "mibr": 23.423423423423422, "pct_black": 0.222326078, "p": 7489.0, "state": "KY", "arr_rate_disproportion": 2.420132309431202, "b_arr_rate": 225.22522522522522, "lat": 36.6743983, "lng": -87.42283, "minbr": 13.221153846153847, "manbr": 1.717032967032967}, {"mabr": 1.17096018735363, "b": 1708.0, "name": "Clark County Sheriff's Department", "nb_arr_rate": 12.535024332694292, "ap_abbr": "Ky.", "mibr": 0.585480093676815, "pct_black": 0.047960015, "p": 35613.0, "state": "KY", "arr_rate_disproportion": 1.447933599669376, "b_arr_rate": 18.149882903981265, "lat": 37.9701332, "lng": -84.144974, "minbr": 1.7696504940274296, "manbr": 0.029494174900457158}, {"mabr": 6.657789613848203, "b": 1502.0, "name": "Winchester Police Department", "nb_arr_rate": 234.02110755365825, "ap_abbr": "Ky.", "mibr": 67.24367509986685, "pct_black": 0.081772648, "p": 18368.0, "state": "KY", "arr_rate_disproportion": 1.1408259977322694, "b_arr_rate": 266.9773635153129, "lat": 37.9994632, "lng": -84.1894084, "minbr": 57.21570022530535, "manbr": 3.616743744812048}, {"mabr": 0.0, "b": 915.0, "name": "Clay County Sheriff's Office", "nb_arr_rate": 31.755945231803985, "ap_abbr": "Ky.", "mibr": 1.0928961748633879, "pct_black": 0.042107685, "p": 21730.0, "state": "KY", "arr_rate_disproportion": 1.1357109198680588, "b_arr_rate": 36.0655737704918, "lat": 37.1644658, "lng": -83.7107629, "minbr": 9.704539995195772, "manbr": 0.24021138601969733}, {"mabr": 0.4323389537397319, "b": 4626.0, "name": "Daviess County Sheriff's Department", "nb_arr_rate": 22.557861566880366, "ap_abbr": "Ky.", "mibr": 1.2970168612191957, "pct_black": 0.047860454, "p": 96656.0, "state": "KY", "arr_rate_disproportion": 2.88444950089425, "b_arr_rate": 65.06701253782965, "lat": 37.731671, "lng": -87.087139, "minbr": 1.4560469412148211, "manbr": 0.07606215364555037}, {"mabr": 9.323452067893857, "b": 4183.0, "name": "Owensboro Police Department", "nb_arr_rate": 124.10986775178026, "ap_abbr": "Ky.", "mibr": 43.98756873057614, "pct_black": 0.073046363, "p": 57265.0, "state": "KY", "arr_rate_disproportion": 3.0087551878603094, "b_arr_rate": 373.41620846282575, "lat": 37.7571718, "lng": -87.1173984, "minbr": 20.23284729286764, "manbr": 1.356391997287216}, {"mabr": 5.166154705389556, "b": 42972.0, "name": "Lexington Division Of Police", "nb_arr_rate": 34.12160692320167, "ap_abbr": "Ky.", "mibr": 11.58894163641441, "pct_black": 0.14527236, "p": 295803.0, "state": "KY", "arr_rate_disproportion": 2.7566476982523738, "b_arr_rate": 94.06124918551615, "lat": 38.0401572, "lng": -84.4584429, "minbr": 4.987521308700278, "manbr": 0.8187287160197919}, {"mabr": 0.5850234009360374, "b": 5128.0, "name": "Franklin County Sheriff's Office", "nb_arr_rate": 30.436850329506083, "ap_abbr": "Ky.", "mibr": 5.265210608424336, "pct_black": 0.104047885, "p": 49285.0, "state": "KY", "arr_rate_disproportion": 1.7555080997882773, "b_arr_rate": 53.43213728549142, "lat": 38.234919, "lng": -84.8687863, "minbr": 2.4911112620875513, "manbr": 0.2491111262087551}, {"mabr": 2.853745541022592, "b": 4205.0, "name": "Frankfort Police Department", "nb_arr_rate": 40.89672638589251, "ap_abbr": "Ky.", "mibr": 10.70154577883472, "pct_black": 0.164727543, "p": 25527.0, "state": "KY", "arr_rate_disproportion": 1.5351449235837633, "b_arr_rate": 62.78240190249703, "lat": 38.192651, "lng": -84.8663698, "minbr": 10.036581934152519, "manbr": 1.125597973923647}, {"mabr": 0.6215040397762586, "b": 1609.0, "name": "Fulton County Sheriff's Office", "nb_arr_rate": 55.918524212144504, "ap_abbr": "Ky.", "mibr": 1.8645121193287757, "pct_black": 0.236166153, "p": 6813.0, "state": "KY", "arr_rate_disproportion": 1.8338854254099044, "b_arr_rate": 102.54816656308266, "lat": 36.5526198, "lng": -89.1877226, "minbr": 1.7294388931591085, "manbr": 0.1921598770176787}, {"mabr": 1.3404825737265416, "b": 746.0, "name": "Fulton Police Department", "nb_arr_rate": 94.17304296645085, "ap_abbr": "Ky.", "mibr": 16.0857908847185, "pct_black": 0.305112474, "p": 2445.0, "state": "KY", "arr_rate_disproportion": 1.43765918230563, "b_arr_rate": 135.3887399463807, "lat": 36.5143335, "lng": -88.8825543, "minbr": 15.891701000588581, "manbr": 1.1771630370806356}, {"mabr": 0.0, "b": 1607.0, "name": "Graves County Sheriff's Office", "nb_arr_rate": 39.22396801261474, "ap_abbr": "Ky.", "mibr": 10.578718108276291, "pct_black": 0.04329086, "p": 37121.0, "state": "KY", "arr_rate_disproportion": 2.2845206564424934, "b_arr_rate": 89.607965152458, "lat": 36.7233435, "lng": -88.6498974, "minbr": 3.857633609280847, "manbr": 0.7884214675902461}, {"mabr": 9.33852140077821, "b": 1285.0, "name": "Mayfield Police Department", "nb_arr_rate": 143.95239729946218, "ap_abbr": "Ky.", "mibr": 94.16342412451363, "pct_black": 0.128192338, "p": 10024.0, "state": "KY", "arr_rate_disproportion": 2.70841803121501, "b_arr_rate": 389.8832684824903, "lat": 36.7359352, "lng": -88.6446068, "minbr": 37.18960979517107, "manbr": 1.3731548232063164}, {"mabr": 0.0, "b": 12275.0, "name": "Hardin County Sheriff's Office", "nb_arr_rate": 25.710854741175964, "ap_abbr": "Ky.", "mibr": 0.8146639511201629, "pct_black": 0.116303308, "p": 105543.0, "state": "KY", "arr_rate_disproportion": 2.7186247874586593, "b_arr_rate": 69.89816700610997, "lat": 37.6958356, "lng": -85.9631827, "minbr": 0.33237552000686194, "manbr": 0.021443581935926576}, {"mabr": 3.3122553447756697, "b": 3321.0, "name": "Elizabethtown Police Department", "nb_arr_rate": 70.84490281634272, "ap_abbr": "Ky.", "mibr": 18.36796145739235, "pct_black": 0.116399706, "p": 28531.0, "state": "KY", "arr_rate_disproportion": 2.1294146685401154, "b_arr_rate": 150.85817524841914, "lat": 37.7043375, "lng": -85.877039, "minbr": 8.449028163427212, "manbr": 0.753669178897263}, {"mabr": 6.762931822335953, "b": 5471.0, "name": "Radcliff Police Department", "nb_arr_rate": 50.87254116051058, "ap_abbr": "Ky.", "mibr": 12.2463900566624, "pct_black": 0.252259314, "p": 21688.0, "state": "KY", "arr_rate_disproportion": 1.8827000769899689, "b_arr_rate": 95.77773715956863, "lat": 37.8200322, "lng": -85.934311, "minbr": 5.303077017944132, "manbr": 1.1716100388481223}, {"mabr": 0.0, "b": 643.0, "name": "Harlan County Sheriff's Office", "nb_arr_rate": 53.221581980094285, "ap_abbr": "Ky.", "mibr": 9.331259720062208, "pct_black": 0.021961883, "p": 29278.0, "state": "KY", "arr_rate_disproportion": 2.9221415363515018, "b_arr_rate": 155.52099533437013, "lat": 36.8592233, "lng": -83.2214968, "minbr": 1.9905709795704558, "manbr": 0.5238344683080147}, {"mabr": 2.2598870056497176, "b": 885.0, "name": "Hart County Sheriff's Department", "nb_arr_rate": 20.214855030611066, "ap_abbr": "Ky.", "mibr": 0.0, "pct_black": 0.048629046, "p": 18199.0, "state": "KY", "arr_rate_disproportion": 1.229727199354318, "b_arr_rate": 24.858757062146893, "lat": 37.3138562, "lng": -85.8819945, "minbr": 2.0214855030611067, "manbr": 0.05775672865888876}, {"mabr": 0.0, "b": 3590.0, "name": "Henderson County Sheriff's Office", "nb_arr_rate": 33.12236286919831, "ap_abbr": "Ky.", "mibr": 1.6713091922005572, "pct_black": 0.077621622, "p": 46250.0, "state": "KY", "arr_rate_disproportion": 2.489292621045722, "b_arr_rate": 82.45125348189416, "lat": 37.7925421, "lng": -87.5725767, "minbr": 0.9142053445850914, "manbr": 0.16408813877168307}, {"mabr": 6.293077614623913, "b": 3337.0, "name": "Henderson City Police Department", "nb_arr_rate": 180.92053501180172, "ap_abbr": "Ky.", "mibr": 54.54000599340725, "pct_black": 0.116041312, "p": 28757.0, "state": "KY", "arr_rate_disproportion": 2.458045008937657, "b_arr_rate": 444.71081810008985, "lat": 37.8402258, "lng": -87.5797951, "minbr": 21.16443745082612, "manbr": 1.5735641227380015}, {"mabr": 1.2961762799740766, "b": 3086.0, "name": "Hopkins County Sheriff's Office", "nb_arr_rate": 24.569968517589086, "ap_abbr": "Ky.", "mibr": 2.268308489954634, "pct_black": 0.065771526, "p": 46920.0, "state": "KY", "arr_rate_disproportion": 1.7804642044131374, "b_arr_rate": 43.745949449125085, "lat": 37.3110702, "lng": -87.5421956, "minbr": 1.8706939818405803, "manbr": 0.43345348359720764}, {"mabr": 4.612159329140462, "b": 2385.0, "name": "Madisonville Police Department", "nb_arr_rate": 204.8122747878647, "ap_abbr": "Ky.", "mibr": 37.316561844863735, "pct_black": 0.121739574, "p": 19591.0, "state": "KY", "arr_rate_disproportion": 1.654119937083122, "b_arr_rate": 338.7840670859539, "lat": 37.3410363, "lng": -87.503475, "minbr": 29.0015111007788, "manbr": 1.2205044751830756}, {"mabr": 15.137180700094609, "b": 1057.0, "name": "St. Matthews Police Department", "nb_arr_rate": 42.095644227840396, "ap_abbr": "Ky.", "mibr": 26.490066225165563, "pct_black": 0.060496795, "p": 17472.0, "state": "KY", "arr_rate_disproportion": 6.56252096491312, "b_arr_rate": 276.2535477767266, "lat": 38.2493343, "lng": -85.6377578, "minbr": 3.9597928723728297, "manbr": 1.4011574779165397}, {"mabr": 4.175084175084176, "b": 7425.0, "name": "Shively Police Department", "nb_arr_rate": 58.68095420334226, "ap_abbr": "Ky.", "mibr": 12.121212121212121, "pct_black": 0.486438679, "p": 15264.0, "state": "KY", "arr_rate_disproportion": 1.2324822134387352, "b_arr_rate": 72.32323232323232, "lat": 38.198839, "lng": -85.8139164, "minbr": 15.308075009567547, "manbr": 1.2756729174639623}, {"mabr": 4.059539918809202, "b": 2956.0, "name": "Jeffersontown Police Department", "nb_arr_rate": 45.68721181099031, "ap_abbr": "Ky.", "mibr": 10.148849797023004, "pct_black": 0.111148712, "p": 26595.0, "state": "KY", "arr_rate_disproportion": 2.569392134014935, "b_arr_rate": 117.38836265223274, "lat": 38.2055365, "lng": -85.5696789, "minbr": 4.526418207199966, "manbr": 0.803756504082237}, {"mabr": 13.56204966899528, "b": 136705.0, "name": "Louisville Metro Police Department", "nb_arr_rate": 76.46233869987321, "ap_abbr": "Ky.", "mibr": 63.01890933030978, "pct_black": 0.228857412, "p": 597337.0, "state": "KY", "arr_rate_disproportion": 2.612796740919437, "b_arr_rate": 199.78054935810687, "lat": 38.1780769, "lng": -85.6667077, "minbr": 22.39965959811737, "manbr": 3.0805502005939664}, {"mabr": 0.66711140760507, "b": 1499.0, "name": "Jessamine County Sheriff's Office", "nb_arr_rate": 50.141227939771056, "ap_abbr": "Ky.", "mibr": 1.33422281521014, "pct_black": 0.030852509, "p": 48586.0, "state": "KY", "arr_rate_disproportion": 2.022306555351457, "b_arr_rate": 101.40093395597064, "lat": 37.8732908, "lng": -84.5839603, "minbr": 0.9769150721005798, "manbr": 0.12742370505659736}, {"mabr": 5.025125628140704, "b": 1194.0, "name": "Nicholasville Police Department", "nb_arr_rate": 97.57279743484582, "ap_abbr": "Ky.", "mibr": 25.963149078726968, "pct_black": 0.042620025, "p": 28015.0, "state": "KY", "arr_rate_disproportion": 2.077218982442463, "b_arr_rate": 202.68006700167504, "lat": 37.8930763, "lng": -84.5665495, "minbr": 13.459602550240483, "manbr": 1.043958092539428}, {"mabr": 8.464079273327828, "b": 4844.0, "name": "Covington Police Department", "nb_arr_rate": 157.9226729243491, "ap_abbr": "Ky.", "mibr": 163.5012386457473, "pct_black": 0.119192913, "p": 40640.0, "state": "KY", "arr_rate_disproportion": 2.562167103456244, "b_arr_rate": 404.62427745664735, "lat": 39.0351095, "lng": -84.5196477, "minbr": 62.26952732148843, "manbr": 1.9555257570678288}, {"mabr": 6.644518272425249, "b": 602.0, "name": "Elsmere Police Department", "nb_arr_rate": 50.197477385654224, "ap_abbr": "Ky.", "mibr": 11.627906976744187, "pct_black": 0.071234174, "p": 8451.0, "state": "KY", "arr_rate_disproportion": 2.117881174427037, "b_arr_rate": 106.31229235880399, "lat": 38.993609, "lng": -84.6017419, "minbr": 12.230857434068033, "manbr": 0.5096190597528347}, {"mabr": 3.6363636363636362, "b": 550.0, "name": "City Of Erlanger Police Department", "nb_arr_rate": 59.94752452657997, "ap_abbr": "Ky.", "mibr": 32.72727272727273, "pct_black": 0.030416989, "p": 18082.0, "state": "KY", "arr_rate_disproportion": 3.2149329642764464, "b_arr_rate": 192.72727272727272, "lat": 39.0394287, "lng": -84.6001348, "minbr": 13.175906913073238, "manbr": 1.08373260323979}, {"mabr": 0.0, "b": 7359.0, "name": "Kenton County Police Department", "nb_arr_rate": 5.29663102762518, "ap_abbr": "Ky.", "mibr": 1.222992254382389, "pct_black": 0.04607438, "p": 159720.0, "state": "KY", "arr_rate_disproportion": 1.4367112874456132, "b_arr_rate": 7.6097295828237534, "lat": 38.9304771, "lng": -84.533492, "minbr": 0.7810397673945432, "manbr": 0.10501375023792178}, {"mabr": 0.0, "b": 565.0, "name": "Lincoln County Sheriff's Office", "nb_arr_rate": 55.25913057864913, "ap_abbr": "Ky.", "mibr": 3.5398230088495577, "pct_black": 0.022835664, "p": 24742.0, "state": "KY", "arr_rate_disproportion": 1.3772600816066984, "b_arr_rate": 76.1061946902655, "lat": 37.4572565, "lng": -84.6580738, "minbr": 5.501096083054143, "manbr": 0.4136162468461761}, {"mabr": 0.5659309564233164, "b": 1767.0, "name": "Logan County Sheriff's Department", "nb_arr_rate": 42.683899792564226, "ap_abbr": "Ky.", "mibr": 16.977928692699493, "pct_black": 0.065846842, "p": 26835.0, "state": "KY", "arr_rate_disproportion": 3.2881455976389575, "b_arr_rate": 140.35087719298247, "lat": 36.8598288, "lng": -86.8814363, "minbr": 4.587521940322323, "manbr": 0.27924046593266316}, {"mabr": 0.9041591320072332, "b": 1106.0, "name": "Russellville Police Department ", "nb_arr_rate": 88.48650495387768, "ap_abbr": "Ky.", "mibr": 38.87884267631103, "pct_black": 0.158908046, "p": 6960.0, "state": "KY", "arr_rate_disproportion": 1.8903384138465513, "b_arr_rate": 167.26943942133815, "lat": 36.8395177, "lng": -86.8955786, "minbr": 21.18209771096686, "manbr": 0.8541168431841476}, {"mabr": 0.4152823920265781, "b": 7224.0, "name": "McCracken County Sheriff's Department", "nb_arr_rate": 50.99329802368831, "ap_abbr": "Ky.", "mibr": 4.014396456256922, "pct_black": 0.110180737, "p": 65565.0, "state": "KY", "arr_rate_disproportion": 1.357310366006868, "b_arr_rate": 69.21373200442967, "lat": 37.0536877, "lng": -88.7123775, "minbr": 3.6509487324523064, "manbr": 0.3256714831764968}, {"mabr": 7.763713080168777, "b": 5925.0, "name": "Paducah Police Department", "nb_arr_rate": 180.009424577203, "ap_abbr": "Ky.", "mibr": 34.26160337552743, "pct_black": 0.236772698, "p": 25024.0, "state": "KY", "arr_rate_disproportion": 1.411084110819017, "b_arr_rate": 254.0084388185654, "lat": 37.0708921, "lng": -88.6444767, "minbr": 29.687418189434002, "manbr": 1.2566102937326562}, {"mabr": 0.0, "b": 1009.0, "name": "McCreary County Sheriff's Office", "nb_arr_rate": 46.8867433659016, "ap_abbr": "Ky.", "mibr": 1.9821605550049557, "pct_black": 0.05511854, "p": 18306.0, "state": "KY", "arr_rate_disproportion": 0.6341325114658579, "b_arr_rate": 29.732408325074335, "lat": 36.7311363, "lng": -84.4910515, "minbr": 4.451639012545528, "manbr": 0.46250794935537953}, {"mabr": 0.0, "b": 3611.0, "name": "Madison County Sheriff", "nb_arr_rate": 19.12868041107118, "ap_abbr": "Ky.", "mibr": 1.9385211852672388, "pct_black": 0.043550099, "p": 82916.0, "state": "KY", "arr_rate_disproportion": 2.084730846036072, "b_arr_rate": 39.878150096926056, "lat": 37.7235278, "lng": -84.277008, "minbr": 2.0427463589937584, "manbr": 0.06304772712943699}, {"mabr": 1.8281535648994514, "b": 547.0, "name": "Berea Police Department", "nb_arr_rate": 93.89887813124328, "ap_abbr": "Ky.", "mibr": 20.109689213893965, "pct_black": 0.040336258, "p": 13561.0, "state": "KY", "arr_rate_disproportion": 0.8371836262069253, "b_arr_rate": 78.61060329067641, "lat": 37.5890239, "lng": -84.2870632, "minbr": 17.13539265406485, "manbr": 1.152604887044721}, {"mabr": 14.676715589051964, "b": 2521.0, "name": "City Of Richmond Police Department", "nb_arr_rate": 141.35145442568387, "ap_abbr": "Ky.", "mibr": 25.78341927806426, "pct_black": 0.080378778, "p": 31364.0, "state": "KY", "arr_rate_disproportion": 1.459251728696998, "b_arr_rate": 206.2673542245141, "lat": 37.7211632, "lng": -84.2909878, "minbr": 24.546683770758936, "manbr": 3.155011614603197}, {"mabr": 0.0, "b": 1604.0, "name": "Marion County Sheriff's Office", "nb_arr_rate": 36.176987263943786, "ap_abbr": "Ky.", "mibr": 3.1172069825436406, "pct_black": 0.080928355, "p": 19820.0, "state": "KY", "arr_rate_disproportion": 1.9990388217619832, "b_arr_rate": 72.31920199501246, "lat": 37.5522465, "lng": -85.269242, "minbr": 4.117259552042161, "manbr": 0.10979358805445762}, {"mabr": 4.821600771456124, "b": 1037.0, "name": "Lebanon Police Department", "nb_arr_rate": 184.80675255442026, "ap_abbr": "Ky.", "mibr": 50.14464802314369, "pct_black": 0.187217909, "p": 5539.0, "state": "KY", "arr_rate_disproportion": 1.314933981158668, "b_arr_rate": 243.00867888138865, "lat": 37.5675133, "lng": -85.2594958, "minbr": 51.976899155930695, "manbr": 2.221235006663705}, {"mabr": 0.0, "b": 896.0, "name": "Martin County Sheriff's Office", "nb_arr_rate": 42.88207429568686, "ap_abbr": "Ky.", "mibr": 1.1160714285714286, "pct_black": 0.06930157, "p": 12929.0, "state": "KY", "arr_rate_disproportion": 0.0520530523255814, "b_arr_rate": 2.232142857142857, "lat": 37.796774, "lng": -82.5066231, "minbr": 14.210919970082275, "manbr": 0.7479431563201197}, {"mabr": 0.0, "b": 1120.0, "name": "Mason County Sheriff's Office", "nb_arr_rate": 35.980452046426386, "ap_abbr": "Ky.", "mibr": 4.4642857142857135, "pct_black": 0.064036592, "p": 17490.0, "state": "KY", "arr_rate_disproportion": 1.1414928450157653, "b_arr_rate": 41.07142857142857, "lat": 38.5940683, "lng": -83.8280523, "minbr": 5.497861942577886, "manbr": 0.3665241295051924}, {"mabr": 0.0, "b": 982.0, "name": "Maysville Police Department", "nb_arr_rate": 134.63694108855398, "ap_abbr": "Ky.", "mibr": 46.84317718940937, "pct_black": 0.108977916, "p": 9011.0, "state": "KY", "arr_rate_disproportion": 0.9832583166751764, "b_arr_rate": 132.38289205702648, "lat": 38.654522, "lng": -83.7934792, "minbr": 44.339270145721756, "manbr": 1.49458213974343}, {"mabr": 3.1645569620253164, "b": 948.0, "name": "Meade County Sheriff's Department", "nb_arr_rate": 23.396253706516237, "ap_abbr": "Ky.", "mibr": 1.0548523206751055, "pct_black": 0.033144535, "p": 28602.0, "state": "KY", "arr_rate_disproportion": 2.5699235028270695, "b_arr_rate": 60.12658227848102, "lat": 37.9674757, "lng": -86.2008628, "minbr": 1.0848340203948796, "manbr": 0.10848340203948796}, {"mabr": 1.3071895424836601, "b": 765.0, "name": "Mercer County Sheriff's Office", "nb_arr_rate": 10.308275795001459, "ap_abbr": "Ky.", "mibr": 2.6143790849673203, "pct_black": 0.035863298, "p": 21331.0, "state": "KY", "arr_rate_disproportion": 1.6485263287705019, "b_arr_rate": 16.99346405228758, "lat": 37.8120851, "lng": -84.8796945, "minbr": 0.3889915394340173, "manbr": 0.1458718272877565}, {"mabr": 6.4935064935064934, "b": 616.0, "name": "Harrodsburg Police Department", "nb_arr_rate": 89.46141895390988, "ap_abbr": "Ky.", "mibr": 27.5974025974026, "pct_black": 0.073860911, "p": 8340.0, "state": "KY", "arr_rate_disproportion": 1.63314977352604, "b_arr_rate": 146.10389610389612, "lat": 37.7660405, "lng": -84.8466642, "minbr": 6.343863283272915, "manbr": 0.9062661833247022}, {"mabr": 1.3679890560875514, "b": 731.0, "name": "Montgomery County Sheriff's Office", "nb_arr_rate": 43.736417261719964, "ap_abbr": "Ky.", "mibr": 6.839945280437757, "pct_black": 0.027585947, "p": 26499.0, "state": "KY", "arr_rate_disproportion": 0.78195079851961, "b_arr_rate": 34.19972640218878, "lat": 38.0381379, "lng": -83.9123375, "minbr": 3.725551071095933, "manbr": 0.2328469419434958}, {"mabr": 0.0, "b": 581.0, "name": "West Liberty Police Department", "nb_arr_rate": 81.99018920812894, "ap_abbr": "Ky.", "mibr": 0.0, "pct_black": 0.169141194, "p": 3435.0, "state": "KY", "arr_rate_disproportion": 0.02099239448637039, "b_arr_rate": 1.721170395869191, "lat": 37.9118038, "lng": -83.2714881, "minbr": 21.373510861948144, "manbr": 0.0}, {"mabr": 0.0, "b": 1426.0, "name": "Muhlenberg County Sheriff's Department", "nb_arr_rate": 25.77062481295514, "ap_abbr": "Ky.", "mibr": 1.402524544179523, "pct_black": 0.045271278, "p": 31499.0, "state": "KY", "arr_rate_disproportion": 1.142891010270099, "b_arr_rate": 29.453015427769987, "lat": 37.2138159, "lng": -87.1340919, "minbr": 2.4606790143982975, "manbr": 0.19951451468094303}, {"mabr": 1.7152658662092626, "b": 583.0, "name": "Central City Police Department", "nb_arr_rate": 97.68303985171455, "ap_abbr": "Ky.", "mibr": 6.86106346483705, "pct_black": 0.097524256, "p": 5978.0, "state": "KY", "arr_rate_disproportion": 0.544344667541116, "b_arr_rate": 53.17324185248714, "lat": 37.2967987, "lng": -87.1290196, "minbr": 19.833178869323447, "manbr": 0.7414272474513438}, {"mabr": 0.45808520384791573, "b": 2183.0, "name": "Nelson County Sheriff's Department ", "nb_arr_rate": 25.16119649003733, "ap_abbr": "Ky.", "mibr": 6.871278057718736, "pct_black": 0.050256694, "p": 43437.0, "state": "KY", "arr_rate_disproportion": 2.7126967272945524, "b_arr_rate": 68.25469537333944, "lat": 37.8031876, "lng": -85.4659548, "minbr": 3.5875309060939546, "manbr": 0.19392058951859215}, {"mabr": 1.3793103448275863, "b": 1450.0, "name": "Bardstown Police Department", "nb_arr_rate": 102.53658536585365, "ap_abbr": "Ky.", "mibr": 24.82758620689655, "pct_black": 0.123931624, "p": 11700.0, "state": "KY", "arr_rate_disproportion": 1.2913809508185965, "b_arr_rate": 132.41379310344828, "lat": 37.8197824, "lng": -85.4512997, "minbr": 29.75609756097561, "manbr": 1.4634146341463414}, {"mabr": 0.0, "b": 2620.0, "name": "Oldham County Sheriff's Office", "nb_arr_rate": 11.837909040488077, "ap_abbr": "Ky.", "mibr": 1.9083969465648853, "pct_black": 0.043437894, "p": 60316.0, "state": "KY", "arr_rate_disproportion": 2.901791601935779, "b_arr_rate": 34.351145038167935, "lat": 38.4000461, "lng": -85.4560593, "minbr": 1.2132556849694953, "manbr": 0.01733222407099279}, {"mabr": 0.7633587786259541, "b": 2620.0, "name": "Oldham County Police Department", "nb_arr_rate": 7.851497504159734, "ap_abbr": "Ky.", "mibr": 1.5267175572519083, "pct_black": 0.043437894, "p": 60316.0, "state": "KY", "arr_rate_disproportion": 2.382002932106567, "b_arr_rate": 18.702290076335878, "lat": 38.4000461, "lng": -85.4560593, "minbr": 1.5079034941763727, "manbr": 0.12132556849694953}, {"mabr": 0.0, "b": 727.0, "name": "Pulaski County Sheriff's Department", "nb_arr_rate": 15.592915811088297, "ap_abbr": "Ky.", "mibr": 1.375515818431912, "pct_black": 0.011528154, "p": 63063.0, "state": "KY", "arr_rate_disproportion": 1.5878547047735492, "b_arr_rate": 24.759284731774414, "lat": 37.1083118, "lng": -84.5799857, "minbr": 1.0106519507186857, "manbr": 0.20854722792607802}, {"mabr": 0.4051863857374392, "b": 2468.0, "name": "Scott County Sheriff's Office", "nb_arr_rate": 8.25411027849234, "ap_abbr": "Ky.", "mibr": 0.8103727714748784, "pct_black": 0.052318063, "p": 47173.0, "state": "KY", "arr_rate_disproportion": 1.32540419812626, "b_arr_rate": 10.94003241491086, "lat": 38.2898823, "lng": -84.579376, "minbr": 0.5144838384968125, "manbr": 0.1565820378033777}, {"mabr": 0.3178639542275906, "b": 3146.0, "name": "Shelby County Sheriff's Office", "nb_arr_rate": 20.859021783806003, "ap_abbr": "Ky.", "mibr": 1.9071837253655437, "pct_black": 0.074773019, "p": 42074.0, "state": "KY", "arr_rate_disproportion": 2.5448595291855476, "b_arr_rate": 53.08328035600763, "lat": 38.239426, "lng": -85.2283599, "minbr": 2.055076037813399, "manbr": 0.10275380189066996}, {"mabr": 5.008347245409015, "b": 1797.0, "name": "Shelbyville Police Department", "nb_arr_rate": 41.88438928804703, "ap_abbr": "Ky.", "mibr": 12.799109627156373, "pct_black": 0.127945888, "p": 14045.0, "state": "KY", "arr_rate_disproportion": 2.1922176987636965, "b_arr_rate": 91.81969949916528, "lat": 38.2058982, "lng": -85.2281812, "minbr": 10.205747877204441, "manbr": 1.061397779229262}, {"mabr": 4.071661237785016, "b": 1228.0, "name": "Franklin Police Department", "nb_arr_rate": 97.7715877437326, "ap_abbr": "Ky.", "mibr": 26.87296416938111, "pct_black": 0.14605138, "p": 8408.0, "state": "KY", "arr_rate_disproportion": 1.1660495373850424, "b_arr_rate": 114.00651465798046, "lat": 36.7187524, "lng": -86.5640536, "minbr": 17.96657381615599, "manbr": 1.2534818941504178}, {"mabr": 0.0, "b": 1216.0, "name": "Taylor County Sheriff's Department", "nb_arr_rate": 28.202266483516485, "ap_abbr": "Ky.", "mibr": 5.756578947368421, "pct_black": 0.049608355, "p": 24512.0, "state": "KY", "arr_rate_disproportion": 1.6621004566210045, "b_arr_rate": 46.875, "lat": 37.3651061, "lng": -85.3266981, "minbr": 3.3482142857142856, "manbr": 0.5151098901098901}, {"mabr": 8.073817762399077, "b": 867.0, "name": "Campbellsville Police Department", "nb_arr_rate": 142.09440601868707, "ap_abbr": "Ky.", "mibr": 41.52249134948097, "pct_black": 0.095191041, "p": 9108.0, "state": "KY", "arr_rate_disproportion": 1.4205023949600937, "b_arr_rate": 201.84544405997693, "lat": 37.3442429, "lng": -85.3467177, "minbr": 33.61242567649557, "manbr": 1.8201674554058973}, {"mabr": 0.0, "b": 996.0, "name": "Todd County Sheriff's Office", "nb_arr_rate": 26.517794836008374, "ap_abbr": "Ky.", "mibr": 2.0080321285140563, "pct_black": 0.079935795, "p": 12460.0, "state": "KY", "arr_rate_disproportion": 2.650338194884802, "b_arr_rate": 70.28112449799197, "lat": 36.8403384, "lng": -87.1836416, "minbr": 2.7041172365666433, "manbr": 0.0}, {"mabr": 0.8539709649871904, "b": 1171.0, "name": "Trigg County Sheriff's Office", "nb_arr_rate": 30.14884568651276, "ap_abbr": "Ky.", "mibr": 18.78736122971819, "pct_black": 0.081665388, "p": 14339.0, "state": "KY", "arr_rate_disproportion": 2.2093627053455998, "b_arr_rate": 66.60973526900085, "lat": 36.8076808, "lng": -87.8586515, "minbr": 8.885176184690158, "manbr": 0.2278250303766707}, {"mabr": 2.2123893805309733, "b": 1808.0, "name": "Union County Sheriff's Office", "nb_arr_rate": 37.73013107053565, "ap_abbr": "Ky.", "mibr": 2.765486725663717, "pct_black": 0.120477111, "p": 15007.0, "state": "KY", "arr_rate_disproportion": 1.348655684685645, "b_arr_rate": 50.884955752212385, "lat": 37.6580293, "lng": -87.9516496, "minbr": 1.6667929388590044, "manbr": 0.22728994620804607}, {"mabr": 0.0, "b": 530.0, "name": "Morganfield Police Department", "nb_arr_rate": 157.1687840290381, "ap_abbr": "Ky.", "mibr": 28.30188679245283, "pct_black": 0.161339422, "p": 3285.0, "state": "KY", "arr_rate_disproportion": 1.728702775720075, "b_arr_rate": 271.6981132075472, "lat": 37.6860265, "lng": -87.8830544, "minbr": 24.319419237749546, "manbr": 2.540834845735027}, {"mabr": 0.0969838037047813, "b": 10311.0, "name": "Warren County Sheriff's Office", "nb_arr_rate": 26.149727969385687, "ap_abbr": "Ky.", "mibr": 1.6487246629812822, "pct_black": 0.090612697, "p": 113792.0, "state": "KY", "arr_rate_disproportion": 2.640657230493801, "b_arr_rate": 69.05246823780429, "lat": 36.995634, "lng": -86.4235786, "minbr": 1.8360858515089726, "manbr": 0.21259941438524946}, {"mabr": 7.4340230454714415, "b": 8071.0, "name": "Bowling Green Police Department", "nb_arr_rate": 117.44939595167612, "ap_abbr": "Ky.", "mibr": 25.895180275058852, "pct_black": 0.13899461, "p": 58067.0, "state": "KY", "arr_rate_disproportion": 1.9062507068567556, "b_arr_rate": 223.88799405278158, "lat": 36.9709194, "lng": -86.4384623, "minbr": 20.96167693415473, "manbr": 1.320105608448676}, {"mabr": 0.0, "b": 742.0, "name": "Washington County Sheriff's Office", "nb_arr_rate": 16.309794988610477, "ap_abbr": "Ky.", "mibr": 0.0, "pct_black": 0.06332679, "p": 11717.0, "state": "KY", "arr_rate_disproportion": 1.9005330602779746, "b_arr_rate": 30.997304582210244, "lat": 37.7542085, "lng": -85.1754162, "minbr": 0.9111617312072893, "manbr": 0.09111617312072894}, {"mabr": 0.0, "b": 563.0, "name": "Webster County Sheriff's Department", "nb_arr_rate": 24.352887119007505, "ap_abbr": "Ky.", "mibr": 0.0, "pct_black": 0.041333235, "p": 13621.0, "state": "KY", "arr_rate_disproportion": 2.1880760079091126, "b_arr_rate": 53.28596802841919, "lat": 37.5200207, "lng": -87.6850951, "minbr": 2.374023587073059, "manbr": 0.0}, {"mabr": 1.455604075691412, "b": 687.0, "name": "Versailles Police Department", "nb_arr_rate": 110.1383073214059, "ap_abbr": "Ky.", "mibr": 71.32459970887918, "pct_black": 0.080182073, "p": 8568.0, "state": "KY", "arr_rate_disproportion": 2.114583542953736, "b_arr_rate": 232.8966521106259, "lat": 38.0502748, "lng": -84.7338564, "minbr": 16.24159370638244, "manbr": 0.8882121558177897}]