[{"mabr": 0.0, "b": 759.0, "name": "Benton County Sheriff's Office", "nb_arr_rate": 17.083235086064608, "ap_abbr": "Ore.", "mibr": 11.857707509881422, "pct_black": 0.008868998, "p": 85579.0, "state": "OR", "arr_rate_disproportion": 2.6222073102980477, "b_arr_rate": 44.79578392621871, "lat": 44.4906234, "lng": -123.4263169, "minbr": 3.5015326573921244, "manbr": 0.27116246168356517}, {"mabr": 6.504065040650406, "b": 615.0, "name": "Corvallis Police Department", "nb_arr_rate": 66.89323453488588, "ap_abbr": "Ore.", "mibr": 74.79674796747967, "pct_black": 0.011292277, "p": 54462.0, "state": "OR", "arr_rate_disproportion": 3.451684023780827, "b_arr_rate": 230.89430894308944, "lat": 44.5699488, "lng": -123.2782855, "minbr": 28.59955057849091, "manbr": 1.2071238880531878}, {"mabr": 10.058403634003895, "b": 3082.0, "name": "Clackamas County Sheriff's Office - Interagency Child Exploitation Prevention Team (INTERCEPT)", "nb_arr_rate": 32.10426108176235, "ap_abbr": "Ore.", "mibr": 12.00519143413368, "pct_black": 0.008196983, "p": 375992.0, "state": "OR", "arr_rate_disproportion": 9.722540459428046, "b_arr_rate": 312.1349772874757, "lat": 45.1604934, "lng": -122.1951274, "minbr": 1.0056045694671636, "manbr": 0.7374433509425867}, {"mabr": 1.7605633802816902, "b": 568.0, "name": "Deschutes County Sheriff's Office", "nb_arr_rate": 19.399993637260206, "ap_abbr": "Ore.", "mibr": 10.563380281690142, "pct_black": 0.003601022, "p": 157733.0, "state": "OR", "arr_rate_disproportion": 3.539278059303674, "b_arr_rate": 68.66197183098592, "lat": 43.9151181, "lng": -121.2255751, "minbr": 2.3860274234085197, "manbr": 0.9098717907931155}, {"mabr": 0.7288629737609329, "b": 1372.0, "name": "Jackson County Sheriff's Office", "nb_arr_rate": 16.53834339110358, "ap_abbr": "Ore.", "mibr": 8.746355685131194, "pct_black": 0.006751769, "p": 203206.0, "state": "OR", "arr_rate_disproportion": 2.1594838654455186, "b_arr_rate": 35.71428571428571, "lat": 42.411782, "lng": -122.6757974, "minbr": 3.889334799885054, "manbr": 0.6490482277515186}, {"mabr": 48.048048048048045, "b": 666.0, "name": "Medford Police Department", "nb_arr_rate": 168.19547150496356, "ap_abbr": "Ore.", "mibr": 195.1951951951952, "pct_black": 0.008891025, "p": 74907.0, "state": "OR", "arr_rate_disproportion": 4.838500148262301, "b_arr_rate": 813.8138138138138, "lat": 42.3368964, "lng": -122.8542443, "minbr": 35.22312468851443, "manbr": 5.697660322463329}, {"mabr": 1.1872959335114277, "b": 3369.0, "name": "Lane County Sheriff's Office", "nb_arr_rate": 8.747050346494577, "ap_abbr": "Ore.", "mibr": 7.420599584446423, "pct_black": 0.009578778, "p": 351715.0, "state": "OR", "arr_rate_disproportion": 2.6129318815747316, "b_arr_rate": 22.85544672009498, "lat": 43.9282763, "lng": -122.8976779, "minbr": 2.104229702651961, "manbr": 0.9243683004828532}, {"mabr": 22.577610536218252, "b": 2126.0, "name": "Eugene Police Department", "nb_arr_rate": 130.2488007841152, "ap_abbr": "Ore.", "mibr": 175.91721542803387, "pct_black": 0.013612063, "p": 156185.0, "state": "OR", "arr_rate_disproportion": 3.93992320638225, "b_arr_rate": 513.170272812794, "lat": 44.0567484, "lng": -123.1162068, "minbr": 52.76549893222727, "manbr": 2.3562401417638696}, {"mabr": 29.275808936825886, "b": 649.0, "name": "Springfield Police Department", "nb_arr_rate": 139.07138237396603, "ap_abbr": "Ore.", "mibr": 175.65485362095532, "pct_black": 0.010925374, "p": 59403.0, "state": "OR", "arr_rate_disproportion": 4.487170324453482, "b_arr_rate": 624.0369799691833, "lat": 44.0539471, "lng": -122.9812245, "minbr": 31.980801307145047, "manbr": 3.3359430847261464}, {"mabr": 0.0, "b": 534.0, "name": "Linn County Sheriff's Office ", "nb_arr_rate": 17.014241678003753, "ap_abbr": "Ore.", "mibr": 16.85393258426966, "pct_black": 0.004576934, "p": 116672.0, "state": "OR", "arr_rate_disproportion": 2.8616696234969448, "b_arr_rate": 48.68913857677902, "lat": 44.4948239, "lng": -122.5437555, "minbr": 4.727134960133634, "manbr": 0.24109249341300867}, {"mabr": 4.153070305547315, "b": 3371.0, "name": "Marion County Sheriff's Office", "nb_arr_rate": 11.071790334782218, "ap_abbr": "Ore.", "mibr": 8.30614061109463, "pct_black": 0.010690218, "p": 315335.0, "state": "OR", "arr_rate_disproportion": 3.161588926428406, "b_arr_rate": 35.00444971818452, "lat": 44.9008984, "lng": -122.5762602, "minbr": 2.3880960623661704, "manbr": 1.147568309163878}, {"mabr": 18.396846254927727, "b": 2283.0, "name": "Salem Police Department", "nb_arr_rate": 90.86732215760662, "ap_abbr": "Ore.", "mibr": 51.24835742444153, "pct_black": 0.014763608, "p": 154637.0, "state": "OR", "arr_rate_disproportion": 3.3791259289577136, "b_arr_rate": 307.0521243977223, "lat": 44.9236937, "lng": -123.0231194, "minbr": 17.807212150649146, "manbr": 3.7084684353545034}, {"mabr": 0.2415400594188546, "b": 41401.0, "name": "Multnomah County Sheriff's Office", "nb_arr_rate": 2.4627737836361723, "ap_abbr": "Ore.", "mibr": 0.7004661723146783, "pct_black": 0.056302306, "p": 735334.0, "state": "OR", "arr_rate_disproportion": 2.3440266655702904, "b_arr_rate": 5.772807420110625, "lat": 45.5476932, "lng": -122.4171728, "minbr": 0.3040639370083279, "manbr": 0.04034971675939896}, {"mabr": 36.70953912111468, "b": 3732.0, "name": "Gresham Police Department", "nb_arr_rate": 54.11242661640259, "ap_abbr": "Ore.", "mibr": 78.2422293676313, "pct_black": 0.035342917, "p": 105594.0, "state": "OR", "arr_rate_disproportion": 6.3729410604865615, "b_arr_rate": 344.85530546623795, "lat": 45.502319, "lng": -122.4416088, "minbr": 9.719031631030218, "manbr": 2.719365415954919}, {"mabr": 17.086796566289685, "b": 36695.0, "name": "Portland Police Bureau", "nb_arr_rate": 63.32517488269561, "ap_abbr": "Ore.", "mibr": 71.26311486578552, "pct_black": 0.062858014, "p": 583776.0, "state": "OR", "arr_rate_disproportion": 4.085694947219281, "b_arr_rate": 258.7273470500068, "lat": 45.5369506, "lng": -122.649971, "minbr": 20.6093795982679, "manbr": 2.0326057750132063}, {"mabr": 0.0, "b": 638.0, "name": "Umatilla County Sheriff's Office", "nb_arr_rate": 5.009900200661785, "ap_abbr": "Ore.", "mibr": 0.0, "pct_black": 0.008407016, "p": 75889.0, "state": "OR", "arr_rate_disproportion": 2.1900210372267446, "b_arr_rate": 10.971786833855798, "lat": 45.5911997, "lng": -118.7338795, "minbr": 0.37208807856374004, "manbr": 0.23919947907669}, {"mabr": 3.639767054908486, "b": 9616.0, "name": "Washington County Sheriff's Office", "nb_arr_rate": 16.22783573738593, "ap_abbr": "Ore.", "mibr": 18.19883527454243, "pct_black": 0.018153329, "p": 529710.0, "state": "OR", "arr_rate_disproportion": 3.6207070709559903, "b_arr_rate": 58.75623960066556, "lat": 45.5535419, "lng": -123.0976146, "minbr": 4.078108957226963, "manbr": 0.6075824754755871}, {"mabr": 8.860759493670885, "b": 2370.0, "name": "Beaverton Police Department", "nb_arr_rate": 56.63765397504374, "ap_abbr": "Ore.", "mibr": 43.0379746835443, "pct_black": 0.026391101, "p": 89803.0, "state": "OR", "arr_rate_disproportion": 3.7025658132417196, "b_arr_rate": 209.70464135021095, "lat": 45.479567, "lng": -122.8149703, "minbr": 10.613841455743255, "manbr": 1.4182288152070728}, {"mabr": 7.17439293598234, "b": 1812.0, "name": "Hillsboro Police Department", "nb_arr_rate": 61.058586398512226, "ap_abbr": "Ore.", "mibr": 96.02649006622516, "pct_black": 0.019779284, "p": 91611.0, "state": "OR", "arr_rate_disproportion": 4.293274636957339, "b_arr_rate": 262.1412803532009, "lat": 45.5307668, "lng": -122.937143, "minbr": 16.191717056982817, "manbr": 1.870844886914108}, {"mabr": 13.017751479289942, "b": 845.0, "name": "Tigard Police Department", "nb_arr_rate": 49.41724941724942, "ap_abbr": "Ore.", "mibr": 26.035502958579883, "pct_black": 0.01759134, "p": 48035.0, "state": "OR", "arr_rate_disproportion": 4.1908563134978225, "b_arr_rate": 207.10059171597635, "lat": 45.4235685, "lng": -122.7786202, "minbr": 7.77707141343505, "manbr": 1.8436109345200253}, {"mabr": 0.0, "b": 872.0, "name": "Yamhill County Sheriff's Office", "nb_arr_rate": 14.503514000061024, "ap_abbr": "Ore.", "mibr": 4.587155963302752, "pct_black": 0.008790943, "p": 99193.0, "state": "OR", "arr_rate_disproportion": 1.7395341431089721, "b_arr_rate": 25.229357798165136, "lat": 45.2481382, "lng": -123.3161171, "minbr": 4.271722216006753, "manbr": 0.3559768513338961}]