[{"mabr": 3.1595576619273302, "b": 633.0, "name": "Adams County Sheriffs Office", "nb_arr_rate": 54.243651813061945, "ap_abbr": "Wis.", "mibr": 11.058451816745656, "pct_black": 0.030323353, "p": 20875.0, "state": "WI", "arr_rate_disproportion": 0.8445888978093158, "b_arr_rate": 45.813586097946285, "lat": 43.9737629, "lng": -89.7672232, "minbr": 9.781642130224286, "manbr": 1.4820669894279221}, {"mabr": 54.72771606610675, "b": 3691.0, "name": "Green Bay Police Department", "nb_arr_rate": 114.11234880337963, "ap_abbr": "Wis.", "mibr": 264.96884313194255, "pct_black": 0.035470944, "p": 104057.0, "state": "WI", "arr_rate_disproportion": 7.984545084462022, "b_arr_rate": 911.1351937144406, "lat": 44.5206763, "lng": -87.9841686, "minbr": 32.30177550166391, "manbr": 4.1846840563537455}, {"mabr": 0.0, "b": 982.0, "name": "Chippewa County Sheriff's Office", "nb_arr_rate": 13.445542298113391, "ap_abbr": "Wis.", "mibr": 5.091649694501019, "pct_black": 0.015733397, "p": 62415.0, "state": "WI", "arr_rate_disproportion": 1.211797833151694, "b_arr_rate": 16.293279022403258, "lat": 45.0690918, "lng": -91.2835054, "minbr": 5.485651034460306, "manbr": 0.06511158497875734}, {"mabr": 5.0, "b": 600.0, "name": "Stanley Police Department", "nb_arr_rate": 77.46010638297872, "ap_abbr": "Wis.", "mibr": 10.0, "pct_black": 0.166297118, "p": 3608.0, "state": "WI", "arr_rate_disproportion": 0.34426323319027186, "b_arr_rate": 26.666666666666668, "lat": 44.959383, "lng": -90.9437188, "minbr": 31.25, "manbr": 2.992021276595745}, {"mabr": 11.157601115760112, "b": 717.0, "name": "Columbia County Sheriff's Office", "nb_arr_rate": 38.68771829781168, "ap_abbr": "Wis.", "mibr": 33.47280334728033, "pct_black": 0.01261591, "p": 56833.0, "state": "WI", "arr_rate_disproportion": 3.6410706106294013, "b_arr_rate": 140.86471408647142, "lat": 43.4718818, "lng": -89.3304721, "minbr": 13.775037422482, "manbr": 0.6949889514576948}, {"mabr": 7.736943907156673, "b": 517.0, "name": "Portage Police Department", "nb_arr_rate": 107.16834913837054, "ap_abbr": "Wis.", "mibr": 40.61895551257253, "pct_black": 0.050077489, "p": 10324.0, "state": "WI", "arr_rate_disproportion": 1.7326631908084225, "b_arr_rate": 185.68665377176015, "lat": 43.5489507, "lng": -89.4658661, "minbr": 21.617212195370655, "manbr": 3.976751300091771}, {"mabr": 0.3156192054286503, "b": 25347.0, "name": "Dane County Sheriff's Office", "nb_arr_rate": 7.200805660369204, "ap_abbr": "Wis.", "mibr": 5.8389553004300305, "pct_black": 0.051932805, "p": 488073.0, "state": "WI", "arr_rate_disproportion": 2.7010913017118314, "b_arr_rate": 19.450033534540577, "lat": 43.0674684, "lng": -89.4178523, "minbr": 2.7337992678172394, "manbr": 0.11886083773118433}, {"mabr": 26.349994091929577, "b": 16926.0, "name": "Madison Police Department", "nb_arr_rate": 61.86801551670728, "ap_abbr": "Wis.", "mibr": 135.41297412265155, "pct_black": 0.072578674, "p": 233209.0, "state": "WI", "arr_rate_disproportion": 9.586717545921859, "b_arr_rate": 593.1111898853835, "lat": 43.0878055, "lng": -89.4301208, "minbr": 18.387945423357362, "manbr": 1.2437408395481846}, {"mabr": 16.501650165016503, "b": 606.0, "name": "Middleton Police Department", "nb_arr_rate": 83.57091945830365, "ap_abbr": "Wis.", "mibr": 334.983498349835, "pct_black": 0.034743722, "p": 17442.0, "state": "WI", "arr_rate_disproportion": 9.69513113358244, "b_arr_rate": 810.2310231023102, "lat": 43.1069587, "lng": -89.5063398, "minbr": 31.48016155856498, "manbr": 0.23758612497030174}, {"mabr": 25.49889135254989, "b": 1804.0, "name": "Sun Prairie Police Department", "nb_arr_rate": 79.75326560232222, "ap_abbr": "Wis.", "mibr": 192.90465631929047, "pct_black": 0.061435772, "p": 29364.0, "state": "WI", "arr_rate_disproportion": 6.915730688450898, "b_arr_rate": 551.5521064301552, "lat": 43.1819608, "lng": -89.2357171, "minbr": 23.00435413642961, "manbr": 1.0159651669085632}, {"mabr": 20.602218700475436, "b": 1262.0, "name": "Town of Madison Police Department", "nb_arr_rate": 145.30595973689455, "ap_abbr": "Wis.", "mibr": 199.68304278922346, "pct_black": 0.200987418, "p": 6279.0, "state": "WI", "arr_rate_disproportion": 3.7027721799395215, "b_arr_rate": 538.0348652931854, "lat": 43.042333, "lng": -89.401256, "minbr": 38.46920470400638, "manbr": 1.9932230416583616}, {"mabr": 17.09077098366882, "b": 2633.0, "name": "Fitchburg Police Department", "nb_arr_rate": 60.23776903699121, "ap_abbr": "Wis.", "mibr": 152.67755412077477, "pct_black": 0.104235946, "p": 25260.0, "state": "WI", "arr_rate_disproportion": 7.048911621473486, "b_arr_rate": 424.6107102164831, "lat": 42.9857823, "lng": -89.4253343, "minbr": 21.213594378397488, "manbr": 1.4142396252264993}, {"mabr": 0.8399832003359934, "b": 2381.0, "name": "Dodge County Sheriff's Office", "nb_arr_rate": 24.763249901595312, "ap_abbr": "Wis.", "mibr": 6.2998740025199504, "pct_black": 0.026825449, "p": 88759.0, "state": "WI", "arr_rate_disproportion": 2.2387566834918564, "b_arr_rate": 55.43889122217556, "lat": 43.4227057, "lng": -88.7043791, "minbr": 6.6799416518094885, "manbr": 0.2778485262451087}, {"mabr": 0.0, "b": 1384.0, "name": "Waupun Police Department", "nb_arr_rate": 78.94736842105263, "ap_abbr": "Wis.", "mibr": 9.39306358381503, "pct_black": 0.122045855, "p": 11340.0, "state": "WI", "arr_rate_disproportion": 0.30202312138728327, "b_arr_rate": 23.843930635838152, "lat": 43.6291066, "lng": -88.7362462, "minbr": 28.123744475693048, "manbr": 1.5066291683406992}, {"mabr": 6.864988558352403, "b": 874.0, "name": "Eau Claire County Sheriff's Office", "nb_arr_rate": 22.909811775765874, "ap_abbr": "Wis.", "mibr": 12.585812356979405, "pct_black": 0.008851888, "p": 98736.0, "state": "WI", "arr_rate_disproportion": 6.642303067912966, "b_arr_rate": 152.17391304347825, "lat": 44.7263547, "lng": -91.2864137, "minbr": 5.528192761235209, "manbr": 0.2043694181602665}, {"mabr": 45.212765957446805, "b": 752.0, "name": "Eau Claire Police Department", "nb_arr_rate": 134.05290875312832, "ap_abbr": "Wis.", "mibr": 343.0851063829787, "pct_black": 0.011414174, "p": 65883.0, "state": "WI", "arr_rate_disproportion": 6.844709301900539, "b_arr_rate": 917.5531914893617, "lat": 44.8213069, "lng": -91.494844, "minbr": 58.43607498733322, "manbr": 2.625477883035728}, {"mabr": 2.298850574712644, "b": 1305.0, "name": "Fond du Lac County Sheriff's Office ", "nb_arr_rate": 18.120564548281635, "ap_abbr": "Wis.", "mibr": 17.624521072796934, "pct_black": 0.012840318, "p": 101633.0, "state": "WI", "arr_rate_disproportion": 4.482534383706571, "b_arr_rate": 81.22605363984675, "lat": 43.7547219, "lng": -88.493284, "minbr": 4.535124790686548, "manbr": 0.30898652420062195}, {"mabr": 38.32116788321168, "b": 1096.0, "name": "Fond Du Lac Police Department", "nb_arr_rate": 109.71973762671438, "ap_abbr": "Wis.", "mibr": 248.17518248175182, "pct_black": 0.02547593, "p": 43021.0, "state": "WI", "arr_rate_disproportion": 6.902124325610916, "b_arr_rate": 757.2992700729926, "lat": 43.7721533, "lng": -88.440266, "minbr": 37.13774597495528, "manbr": 4.9850924269528925}, {"mabr": 10.204081632653061, "b": 588.0, "name": "Grant County Sheriff's Office", "nb_arr_rate": 35.38127222441723, "ap_abbr": "Wis.", "mibr": 25.510204081632654, "pct_black": 0.011482581, "p": 51208.0, "state": "WI", "arr_rate_disproportion": 3.2205053992562966, "b_arr_rate": 113.94557823129253, "lat": 42.8700621, "lng": -90.6953683, "minbr": 10.766495456341367, "manbr": 0.5136309758988542}, {"mabr": 4.405286343612334, "b": 681.0, "name": "Jefferson County Sheriffs Department", "nb_arr_rate": 17.288115173784714, "ap_abbr": "Wis.", "mibr": 30.83700440528634, "pct_black": 0.008137562, "p": 83686.0, "state": "WI", "arr_rate_disproportion": 4.671624532481951, "b_arr_rate": 80.76358296622614, "lat": 43.0138065, "lng": -88.7739855, "minbr": 5.614119631347509, "manbr": 0.39756641166194806}, {"mabr": 1.7953321364452421, "b": 557.0, "name": "Juneau County Sheriff's Office ", "nb_arr_rate": 22.254567740452753, "ap_abbr": "Wis.", "mibr": 1.7953321364452421, "pct_black": 0.020889589, "p": 26664.0, "state": "WI", "arr_rate_disproportion": 1.8554680378348478, "b_arr_rate": 41.292639138240574, "lat": 43.9328362, "lng": -90.1139837, "minbr": 4.864595702302065, "manbr": 0.9959014823610526}, {"mabr": 0.18096272167933405, "b": 11052.0, "name": "Kenosha County Sheriff's Department ", "nb_arr_rate": 24.881897872230876, "ap_abbr": "Wis.", "mibr": 7.9623597538906985, "pct_black": 0.066407893, "p": 166426.0, "state": "WI", "arr_rate_disproportion": 2.090949120921856, "b_arr_rate": 52.02678248280854, "lat": 42.5797028, "lng": -87.4248983, "minbr": 10.420018793363111, "manbr": 0.2188268307438825}, {"mabr": 14.783313082219523, "b": 9876.0, "name": "Kenosha Police Department", "nb_arr_rate": 96.48317700521591, "ap_abbr": "Wis.", "mibr": 164.33778857837183, "pct_black": 0.09953839, "p": 99218.0, "state": "WI", "arr_rate_disproportion": 5.075205306825518, "b_arr_rate": 489.6719319562576, "lat": 42.5847398, "lng": -87.8736961, "minbr": 33.757919007857446, "manbr": 1.108101452844127}, {"mabr": 1.8633540372670807, "b": 1610.0, "name": "La Crosse Sheriff's Department", "nb_arr_rate": 14.863573627773649, "ap_abbr": "Wis.", "mibr": 12.422360248447204, "pct_black": 0.014044209, "p": 114638.0, "state": "WI", "arr_rate_disproportion": 5.39064330079858, "b_arr_rate": 80.12422360248446, "lat": 43.9082222, "lng": -91.1117584, "minbr": 4.202498495947907, "manbr": 0.33619987967583254}, {"mabr": 48.484848484848484, "b": 1155.0, "name": "La Crosse Police Department", "nb_arr_rate": 253.8223861257849, "ap_abbr": "Wis.", "mibr": 520.3463203463203, "pct_black": 0.022505846, "p": 51320.0, "state": "WI", "arr_rate_disproportion": 8.097832845967615, "b_arr_rate": 2055.4112554112553, "lat": 43.8258663, "lng": -91.2242447, "minbr": 79.71693411741253, "manbr": 2.850593042958238}, {"mabr": 50.65666041275797, "b": 533.0, "name": "Wausau Police Department", "nb_arr_rate": 149.61242319757343, "ap_abbr": "Wis.", "mibr": 273.92120075046904, "pct_black": 0.013629622, "p": 39106.0, "state": "WI", "arr_rate_disproportion": 7.77493601149306, "b_arr_rate": 1163.2270168855534, "lat": 44.9618663, "lng": -89.6434858, "minbr": 44.97964897726389, "manbr": 4.199828895859798}, {"mabr": 0.8743806470416788, "b": 3431.0, "name": "Brown Deer Police Department", "nb_arr_rate": 25.093370681605975, "ap_abbr": "Wis.", "mibr": 42.5531914893617, "pct_black": 0.285940495, "p": 11999.0, "state": "WI", "arr_rate_disproportion": 5.249992882948222, "b_arr_rate": 131.74001748761293, "lat": 43.1743106, "lng": -87.9749998, "minbr": 9.68720821661998, "manbr": 0.11671335200746966}, {"mabr": 6.343713956170704, "b": 1734.0, "name": "Franklin Police Department", "nb_arr_rate": 75.2142835958122, "ap_abbr": "Wis.", "mibr": 51.32641291810842, "pct_black": 0.048912584, "p": 35451.0, "state": "WI", "arr_rate_disproportion": 4.546793986661282, "b_arr_rate": 341.9838523644752, "lat": 42.883879, "lng": -88.0115479, "minbr": 19.485719370050717, "manbr": 1.3049796838390129}, {"mabr": 17.650303364589078, "b": 1813.0, "name": "Glendale Police Department", "nb_arr_rate": 31.286734786147033, "ap_abbr": "Wis.", "mibr": 83.83894098179813, "pct_black": 0.140848353, "p": 12872.0, "state": "WI", "arr_rate_disproportion": 26.074148172001184, "b_arr_rate": 815.7749586321015, "lat": 43.1261424, "lng": -87.9271954, "minbr": 4.521204448865178, "manbr": 0.09042408897730356}, {"mabr": 12.835472578763127, "b": 857.0, "name": "Greenfield Police Department", "nb_arr_rate": 126.8717062153194, "ap_abbr": "Wis.", "mibr": 275.3792298716453, "pct_black": 0.02333878, "p": 36720.0, "state": "WI", "arr_rate_disproportion": 9.693821277905291, "b_arr_rate": 1229.8716452742124, "lat": 42.9606041, "lng": -88.0056698, "minbr": 35.635613306193015, "manbr": 1.3105428993670356}, {"mabr": 2.0876826722338206, "b": 958.0, "name": "Oak Creek Police Department", "nb_arr_rate": 129.13146030513838, "ap_abbr": "Wis.", "mibr": 181.62839248434238, "pct_black": 0.027807611, "p": 34451.0, "state": "WI", "arr_rate_disproportion": 6.248588461027913, "b_arr_rate": 806.8893528183717, "lat": 42.8802371, "lng": -87.9007649, "minbr": 28.901561520317678, "manbr": 0.9852805063744663}, {"mabr": 35.7487922705314, "b": 2070.0, "name": "Wauwatosa Police Department", "nb_arr_rate": 45.30072643595181, "ap_abbr": "Wis.", "mibr": 187.43961352657007, "pct_black": 0.044615915, "p": 46396.0, "state": "WI", "arr_rate_disproportion": 30.08344544527206, "b_arr_rate": 1362.80193236715, "lat": 43.0631195, "lng": -88.0355695, "minbr": 7.489960745386455, "manbr": 0.6091233136308262}, {"mabr": 34.10641200545703, "b": 2199.0, "name": "West Allis Police Department", "nb_arr_rate": 158.48965848965847, "ap_abbr": "Wis.", "mibr": 162.80127330604822, "pct_black": 0.036400656, "p": 60411.0, "state": "WI", "arr_rate_disproportion": 7.213385032926404, "b_arr_rate": 1143.2469304229196, "lat": 43.007186, "lng": -88.0289858, "minbr": 28.035456606885177, "manbr": 2.886002886002886}, {"mabr": 0.0, "b": 512.0, "name": "Monroe County Sheriff's Office", "nb_arr_rate": 19.904440569733474, "ap_abbr": "Wis.", "mibr": 37.109375, "pct_black": 0.011461061, "p": 44673.0, "state": "WI", "arr_rate_disproportion": 3.925003555176337, "b_arr_rate": 78.125, "lat": 43.9451751, "lng": -90.6199687, "minbr": 6.181925228142479, "manbr": 0.3849550508367111}, {"mabr": 2.3041474654377883, "b": 1736.0, "name": "Outagamie County Sheriff's Office", "nb_arr_rate": 11.974233963385707, "ap_abbr": "Wis.", "mibr": 25.34562211981567, "pct_black": 0.009824839, "p": 176695.0, "state": "WI", "arr_rate_disproportion": 5.917082861322219, "b_arr_rate": 70.85253456221199, "lat": 44.4182258, "lng": -88.4649883, "minbr": 4.412462348321607, "manbr": 0.2514874913551175}, {"mabr": 47.69736842105263, "b": 1216.0, "name": "Appleton Police Department", "nb_arr_rate": 136.4572100774434, "ap_abbr": "Wis.", "mibr": 371.7105263157895, "pct_black": 0.016744007, "p": 72623.0, "state": "WI", "arr_rate_disproportion": 10.50430502779038, "b_arr_rate": 1433.3881578947369, "lat": 44.2788191, "lng": -88.3926255, "minbr": 39.127816600613386, "manbr": 3.5010573193104317}, {"mabr": 0.0, "b": 1177.0, "name": "Ozaukee County Sheriff's Office", "nb_arr_rate": 8.9417728648877, "ap_abbr": "Wis.", "mibr": 16.99235344095157, "pct_black": 0.013623474, "p": 86395.0, "state": "WI", "arr_rate_disproportion": 10.356819352551195, "b_arr_rate": 92.60832625318606, "lat": 43.360715, "lng": -87.4965534, "minbr": 2.687225703489873, "manbr": 0.0821422704123542}, {"mabr": 6.240249609984399, "b": 641.0, "name": "Mequon Police Department", "nb_arr_rate": 50.197856920545995, "ap_abbr": "Wis.", "mibr": 76.4430577223089, "pct_black": 0.027710531, "p": 23132.0, "state": "WI", "arr_rate_disproportion": 8.764071306873532, "b_arr_rate": 439.9375975039001, "lat": 43.2131185, "lng": -88.0136958, "minbr": 16.139789249032948, "manbr": 0.6669334400426837}, {"mabr": 0.3215877245371434, "b": 21767.0, "name": "Racine County Sheriff's Office", "nb_arr_rate": 14.604845629776378, "ap_abbr": "Wis.", "mibr": 7.212753250333074, "pct_black": 0.111392573, "p": 195408.0, "state": "WI", "arr_rate_disproportion": 1.5885314955249452, "b_arr_rate": 23.20025727017963, "lat": 42.7540747, "lng": -87.414676, "minbr": 5.350118923526126, "manbr": 0.19580628998911548}, {"mabr": 10.67475700882072, "b": 17799.0, "name": "Racine Police Department", "nb_arr_rate": 83.29375542490297, "ap_abbr": "Wis.", "mibr": 94.2187763357492, "pct_black": 0.225703779, "p": 78860.0, "state": "WI", "arr_rate_disproportion": 4.255518481743209, "b_arr_rate": 354.4581156244733, "lat": 42.7282842, "lng": -87.8070858, "minbr": 21.568595339087143, "manbr": 1.1791487201323267}, {"mabr": 4.360465122616955, "b": 688.0, "name": "Caledonia Police Department", "nb_arr_rate": 42.09518257900654, "ap_abbr": "Wis.", "mibr": 61.046511716637376, "pct_black": 0.027848614, "p": 24705.0, "state": "WI", "arr_rate_disproportion": 6.698551409455632, "b_arr_rate": 281.97674459589643, "lat": 42.791682, "lng": -87.845892, "minbr": 10.784027980180705, "manbr": 0.7911062997043761}, {"mabr": 37.10045662100457, "b": 1752.0, "name": "Mount Pleasant Police Department", "nb_arr_rate": 63.93945592145633, "ap_abbr": "Wis.", "mibr": 170.662100456621, "pct_black": 0.066877887, "p": 26197.0, "state": "WI", "arr_rate_disproportion": 8.159116936461611, "b_arr_rate": 521.689497716895, "lat": 42.709369, "lng": -87.851063, "minbr": 18.654121497238698, "manbr": 3.845367150746574}, {"mabr": 0.0, "b": 1110.0, "name": "Sturtevant Police Department", "nb_arr_rate": 39.419795221843, "ap_abbr": "Wis.", "mibr": 9.909909909909908, "pct_black": 0.159253946, "p": 6970.0, "state": "WI", "arr_rate_disproportion": 0.777036777036777, "b_arr_rate": 30.630630630630627, "lat": 42.7002502, "lng": -87.90155, "minbr": 12.457337883959044, "manbr": 0.5119453924914675}, {"mabr": 0.6267234895963901, "b": 7978.0, "name": "Garfield County Sheriff's Office", "nb_arr_rate": 24.712345670909006, "ap_abbr": "Wis.", "mibr": 9.275507646026574, "pct_black": 0.04975956, "p": 160331.0, "state": "WI", "arr_rate_disproportion": 4.331615195439518, "b_arr_rate": 107.04437202306343, "lat": 42.6699307, "lng": -89.0751194, "minbr": 5.500383976685724, "manbr": 0.1969111208837371}, {"mabr": 14.53697056712132, "b": 5572.0, "name": "City Of Beloit (Wi) Police Department", "nb_arr_rate": 199.9108109829904, "ap_abbr": "Wis.", "mibr": 196.8772433596554, "pct_black": 0.150733106, "p": 36966.0, "state": "WI", "arr_rate_disproportion": 4.649417246937592, "b_arr_rate": 929.4687724335965, "lat": 42.5235059, "lng": -89.0176597, "minbr": 43.95744409759827, "manbr": 1.9111932216347072}, {"mabr": 39.19167176974893, "b": 1633.0, "name": "Janesville Police Department", "nb_arr_rate": 127.87769203448387, "ap_abbr": "Wis.", "mibr": 288.42620943049604, "pct_black": 0.025686197, "p": 63575.0, "state": "WI", "arr_rate_disproportion": 9.103347949241256, "b_arr_rate": 1164.1151255358236, "lat": 42.6846985, "lng": -89.0131701, "minbr": 33.160052952762264, "manbr": 2.421620225372122}, {"mabr": 12.681159420289854, "b": 552.0, "name": "St. Croix County Sheriff's Office", "nb_arr_rate": 27.985631257980973, "ap_abbr": "Wis.", "mibr": 39.85507246376811, "pct_black": 0.006544549, "p": 84345.0, "state": "WI", "arr_rate_disproportion": 7.962160470937239, "b_arr_rate": 222.82608695652172, "lat": 45.0289589, "lng": -92.4472842, "minbr": 6.5518599405678275, "manbr": 0.33415679114007135}, {"mabr": 3.5629453681710217, "b": 1684.0, "name": "Sheboygan County Sheriff's Office", "nb_arr_rate": 15.893097177196173, "ap_abbr": "Wis.", "mibr": 13.657957244655583, "pct_black": 0.014579203, "p": 115507.0, "state": "WI", "arr_rate_disproportion": 7.136458444121436, "b_arr_rate": 113.42042755344418, "lat": 43.7460015, "lng": -87.7305455, "minbr": 3.215518831870536, "manbr": 0.26356711736643734}, {"mabr": 9.183673469387756, "b": 980.0, "name": "Walworth County Sheriff's Office", "nb_arr_rate": 20.92880847029077, "ap_abbr": "Wis.", "mibr": 19.387755102040817, "pct_black": 0.009586415, "p": 102228.0, "state": "WI", "arr_rate_disproportion": 8.288545810018203, "b_arr_rate": 173.46938775510205, "lat": 42.6681095, "lng": -88.5417306, "minbr": 7.042114412136536, "manbr": 0.40494627054361565}, {"mabr": 9.900990099009901, "b": 505.0, "name": "Whitewater Police Department", "nb_arr_rate": 186.67626935541952, "ap_abbr": "Wis.", "mibr": 243.56435643564356, "pct_black": 0.035093815, "p": 14390.0, "state": "WI", "arr_rate_disproportion": 2.3230770993766043, "b_arr_rate": 433.66336633663366, "lat": 42.8374392, "lng": -88.7342824, "minbr": 112.42347857400073, "manbr": 0.6481814908174289}, {"mabr": 6.926406926406926, "b": 1155.0, "name": "Washington County", "nb_arr_rate": 21.67028730532693, "ap_abbr": "Wis.", "mibr": 36.36363636363636, "pct_black": 0.008757497, "p": 131887.0, "state": "WI", "arr_rate_disproportion": 5.833191070607237, "b_arr_rate": 126.4069264069264, "lat": 43.391156, "lng": -88.2329166, "minbr": 7.12143928035982, "manbr": 0.5124988526145091}, {"mabr": 0.2035002035002035, "b": 4914.0, "name": "Waukesha County Sheriff's Department", "nb_arr_rate": 5.8652854586118135, "ap_abbr": "Wis.", "mibr": 20.35002035002035, "pct_black": 0.012603523, "p": 389891.0, "state": "WI", "arr_rate_disproportion": 13.427237141364689, "b_arr_rate": 78.75457875457876, "lat": 43.0193081, "lng": -88.3067069, "minbr": 1.7247783633827476, "manbr": 0.036365808866503715}, {"mabr": 9.416195856873822, "b": 1062.0, "name": "Menomonee Falls Police Department", "nb_arr_rate": 39.26050225668325, "ap_abbr": "Wis.", "mibr": 109.22787193973635, "pct_black": 0.02980969, "p": 35626.0, "state": "WI", "arr_rate_disproportion": 11.056573503921218, "b_arr_rate": 434.08662900188324, "lat": 43.1593631, "lng": -88.1215268, "minbr": 12.41175789839139, "manbr": 0.6365004050457123}, {"mabr": 16.867469879518072, "b": 1660.0, "name": "Waukesha Police Department", "nb_arr_rate": 92.93637232471255, "ap_abbr": "Wis.", "mibr": 157.83132530120483, "pct_black": 0.023473515, "p": 70718.0, "state": "WI", "arr_rate_disproportion": 7.071815901812299, "b_arr_rate": 657.2289156626506, "lat": 43.0090837, "lng": -88.2450618, "minbr": 20.98236265168409, "manbr": 2.2734513018042803}, {"mabr": 0.3361344537815126, "b": 2975.0, "name": "Winnebago County Sheriff's Office", "nb_arr_rate": 10.98043519348368, "ap_abbr": "Wis.", "mibr": 13.781512605042016, "pct_black": 0.017815011, "p": 166994.0, "state": "WI", "arr_rate_disproportion": 3.21427311624261, "b_arr_rate": 35.29411764705882, "lat": 44.0857068, "lng": -88.6681488, "minbr": 4.15195800486529, "manbr": 0.2560678945731897}, {"mabr": 47.29400292540224, "b": 2051.0, "name": "Oshkosh Police Department", "nb_arr_rate": 146.9421539230385, "ap_abbr": "Wis.", "mibr": 285.22671867381763, "pct_black": 0.031036727, "p": 66083.0, "state": "WI", "arr_rate_disproportion": 5.308941266489717, "b_arr_rate": 780.1072647489029, "lat": 44.0226282, "lng": -88.562352, "minbr": 55.76899050474763, "manbr": 3.841829085457271}, {"mabr": 20.141397743187714, "b": 237769.0, "name": "Milwaukee Police Department", "nb_arr_rate": 64.64947460399256, "ap_abbr": "Wis.", "mibr": 99.21394294462272, "pct_black": 0.399723956, "p": 594833.0, "state": "WI", "arr_rate_disproportion": 4.829933274659578, "b_arr_rate": 312.25264857908303, "lat": 43.0633484, "lng": -87.9666952, "minbr": 22.292922277238816, "manbr": 2.6661886944637376}]