[{"mabr": 1.780989212293914, "b": 19652.0, "name": "Bernalillo County Sheriff's Department", "nb_arr_rate": 18.442648449554525, "ap_abbr": "N.M.", "mibr": 1.1703643395074292, "pct_black": 0.029660531, "p": 662564.0, "state": "NM", "arr_rate_disproportion": 1.095369044379713, "b_arr_rate": 20.201506208019538, "lat": 35.0540019, "lng": -106.6690645, "minbr": 1.2630033348265393, "manbr": 1.1416803543875367}, {"mabr": 18.457592148552948, "b": 17933.0, "name": "Albuquerque Police Department", "nb_arr_rate": 104.86646625713415, "ap_abbr": "N.M.", "mibr": 18.62488150337367, "pct_black": 0.032853228, "p": 545852.0, "state": "NM", "arr_rate_disproportion": 2.1892294660657097, "b_arr_rate": 229.57675793230356, "lat": 35.1055517, "lng": -106.6473884, "minbr": 9.111246232850116, "manbr": 5.66185342827214}, {"mabr": 10.933557611438182, "b": 1189.0, "name": "Roswell Police Department ", "nb_arr_rate": 175.61523623799732, "ap_abbr": "N.M.", "mibr": 55.50883095037847, "pct_black": 0.024583385, "p": 48366.0, "state": "NM", "arr_rate_disproportion": 1.5468865932078046, "b_arr_rate": 271.6568544995795, "lat": 33.3734421, "lng": -104.5293929, "minbr": 35.58937617907031, "manbr": 4.536108697034572}, {"mabr": 1.0940919037199124, "b": 3656.0, "name": "Dona Ana County Sheriff's Office", "nb_arr_rate": 46.04114273483901, "ap_abbr": "N.M.", "mibr": 9.573304157549234, "pct_black": 0.017473343, "p": 209233.0, "state": "NM", "arr_rate_disproportion": 1.2059901387236867, "b_arr_rate": 55.52516411378556, "lat": 32.3509119, "lng": -106.8321821, "minbr": 9.174178045209338, "manbr": 0.8074833274150318}, {"mabr": 14.255765199161427, "b": 2385.0, "name": "Las Cruces Police Department", "nb_arr_rate": 123.36059979208888, "ap_abbr": "N.M.", "mibr": 36.47798742138365, "pct_black": 0.02443197, "p": 97618.0, "state": "NM", "arr_rate_disproportion": 2.1446898852135234, "b_arr_rate": 264.5702306079665, "lat": 32.3264441, "lng": -106.7896951, "minbr": 19.678052775823506, "manbr": 4.452238194743419}, {"mabr": 0.0, "b": 743.0, "name": "Eddy County Sheriff's Department", "nb_arr_rate": 53.290886486079195, "ap_abbr": "N.M.", "mibr": 2.6917900403768504, "pct_black": 0.013802969, "p": 53829.0, "state": "NM", "arr_rate_disproportion": 0.8839471214069622, "b_arr_rate": 47.10632570659489, "lat": 32.4578575, "lng": -104.3064708, "minbr": 5.2556229514372905, "manbr": 0.4709339562219794}, {"mabr": 1.135933358576297, "b": 2641.0, "name": "Lea County Sheriff's Department", "nb_arr_rate": 8.745933060593371, "ap_abbr": "N.M.", "mibr": 0.0, "pct_black": 0.040802138, "p": 64727.0, "state": "NM", "arr_rate_disproportion": 1.082344360045549, "b_arr_rate": 9.46611132146914, "lat": 32.7956865, "lng": -103.4132707, "minbr": 0.5959475566150179, "manbr": 0.5154141030183939}, {"mabr": 8.645533141210375, "b": 2082.0, "name": "Hobbs Police Department", "nb_arr_rate": 85.51810237203496, "ap_abbr": "N.M.", "mibr": 25.936599423631126, "pct_black": 0.061016353, "p": 34122.0, "state": "NM", "arr_rate_disproportion": 2.151096994046993, "b_arr_rate": 183.95773294908744, "lat": 32.7302758, "lng": -103.16049, "minbr": 10.64294631710362, "manbr": 2.5905118601747814}, {"mabr": 14.563106796116505, "b": 1648.0, "name": "Alamogordo Police Department", "nb_arr_rate": 178.29942618675014, "ap_abbr": "N.M.", "mibr": 38.834951456310684, "pct_black": 0.054205177, "p": 30403.0, "state": "NM", "arr_rate_disproportion": 2.2393333125031956, "b_arr_rate": 399.2718446601942, "lat": 32.8836013, "lng": -105.963686, "minbr": 21.387584767866457, "manbr": 4.207963832376978}, {"mabr": 0.0, "b": 2800.0, "name": "Sandoval County Sheriff's Office", "nb_arr_rate": 9.319592112518542, "ap_abbr": "N.M.", "mibr": 0.0, "pct_black": 0.021282903, "p": 131561.0, "state": "NM", "arr_rate_disproportion": 1.1113300595238096, "b_arr_rate": 10.357142857142858, "lat": 35.6850734, "lng": -106.8826177, "minbr": 0.08542959436475331, "manbr": 0.2096908225316672}, {"mabr": 7.8957757599684175, "b": 2533.0, "name": "Rio Rancho Police Department", "nb_arr_rate": 91.37760625029416, "ap_abbr": "N.M.", "mibr": 28.03000394788788, "pct_black": 0.028941625, "p": 87521.0, "state": "NM", "arr_rate_disproportion": 1.7756887986637166, "b_arr_rate": 162.25819186735097, "lat": 35.2850958, "lng": -106.6988694, "minbr": 15.696333600037653, "manbr": 3.2004518284934345}, {"mabr": 6.613756613756614, "b": 756.0, "name": "San Juan County Sheriff's Office", "nb_arr_rate": 59.10834725573912, "ap_abbr": "N.M.", "mibr": 18.51851851851852, "pct_black": 0.005813417, "p": 130044.0, "state": "NM", "arr_rate_disproportion": 10.51785662358811, "b_arr_rate": 621.6931216931217, "lat": 36.5116245, "lng": -108.3245778, "minbr": 3.194418662211497, "manbr": 2.351339644823959}, {"mabr": 0.0, "b": 1239.0, "name": "Santa Fe County Sheriff's Office", "nb_arr_rate": 41.63547445970433, "ap_abbr": "N.M.", "mibr": 0.0, "pct_black": 0.008594021, "p": 144170.0, "state": "NM", "arr_rate_disproportion": 1.2794081447234742, "b_arr_rate": 53.26876513317191, "lat": 35.5137223, "lng": -105.9664409, "minbr": 0.00699638287005618, "manbr": 0.4757540351638203}, {"mabr": 2.902757619738752, "b": 689.0, "name": "City Of Santa Fe Police Department", "nb_arr_rate": 126.21546879181659, "ap_abbr": "N.M.", "mibr": 15.965166908563136, "pct_black": 0.010140256, "p": 67947.0, "state": "NM", "arr_rate_disproportion": 1.5523940227607795, "b_arr_rate": 195.93613933236577, "lat": 35.6660385, "lng": -105.9737205, "minbr": 11.567397186951737, "manbr": 1.8882512117517618}, {"mabr": 0.9337068160597572, "b": 1071.0, "name": "Valencia County Sheriff's Department", "nb_arr_rate": 5.722005880950489, "ap_abbr": "N.M.", "mibr": 0.0, "pct_black": 0.013987384, "p": 76569.0, "state": "NM", "arr_rate_disproportion": 0.9790694055399939, "b_arr_rate": 5.602240896358544, "lat": 34.7168404, "lng": -106.8065821, "minbr": 0.14569922382049855, "manbr": 1.0596307186945348}]