[{"mabr": 0.0, "b": 529.0, "name": "Atoka County Sheriff's Office", "nb_arr_rate": 27.979198710906026, "ap_abbr": "Okla.", "mibr": 0.0, "pct_black": 0.037300804, "p": 14182.0, "state": "OK", "arr_rate_disproportion": 3.3781510109957544, "b_arr_rate": 94.5179584120983, "lat": 34.3748131, "lng": -96.0347049, "minbr": 0.07324397568300008, "manbr": 0.0}, {"mabr": 0.0, "b": 876.0, "name": "Beckham County Sheriff's Office", "nb_arr_rate": 18.641434825589606, "ap_abbr": "Okla.", "mibr": 4.566210045662101, "pct_black": 0.03960396, "p": 22119.0, "state": "OK", "arr_rate_disproportion": 1.7758838383838385, "b_arr_rate": 33.10502283105023, "lat": 35.2739452, "lng": -99.6716381, "minbr": 2.2124935272795745, "manbr": 0.18829732147060207}, {"mabr": 0.0, "b": 652.0, "name": "Bryan County Sheriff's Office", "nb_arr_rate": 14.07911119624557, "ap_abbr": "Okla.", "mibr": 6.134969325153374, "pct_black": 0.015371558, "p": 42416.0, "state": "OK", "arr_rate_disproportion": 1.8519364801135176, "b_arr_rate": 26.07361963190184, "lat": 33.9640035, "lng": -96.2641365, "minbr": 3.040896465855761, "manbr": 0.8859304664304185}, {"mabr": 0.0, "b": 820.0, "name": "Caddo County Sheriff's Department", "nb_arr_rate": 16.330785267546908, "ap_abbr": "Okla.", "mibr": 13.414634146341465, "pct_black": 0.027702703, "p": 29600.0, "state": "OK", "arr_rate_disproportion": 2.3896211728074728, "b_arr_rate": 39.02439024390244, "lat": 35.1679202, "lng": -98.3810447, "minbr": 6.184850590687978, "manbr": 0.41695621959694235}, {"mabr": 0.0, "b": 2933.0, "name": "Canadian County Sheriff's Office", "nb_arr_rate": 10.763000852514919, "ap_abbr": "Okla.", "mibr": 4.773269689737471, "pct_black": 0.025384928, "p": 115541.0, "state": "OK", "arr_rate_disproportion": 4.086431964028316, "b_arr_rate": 43.98227071258098, "lat": 35.543416, "lng": -97.9798358, "minbr": 0.7814720090934925, "manbr": 0.10656436487638533}, {"mabr": 1.6542597187758477, "b": 1209.0, "name": "El Reno Police Department", "nb_arr_rate": 90.21879021879022, "ap_abbr": "Okla.", "mibr": 33.085194375516956, "pct_black": 0.072183414, "p": 16749.0, "state": "OK", "arr_rate_disproportion": 0.9168044233158585, "b_arr_rate": 82.71298593879239, "lat": 35.5418325, "lng": -97.9612683, "minbr": 33.65508365508366, "manbr": 2.5096525096525095}, {"mabr": 0.6234413965087281, "b": 3208.0, "name": "Carter County Sheriff's Office ", "nb_arr_rate": 17.429930776342196, "ap_abbr": "Okla.", "mibr": 6.546134663341645, "pct_black": 0.067455895, "p": 47557.0, "state": "OK", "arr_rate_disproportion": 1.251895326367135, "b_arr_rate": 21.820448877805486, "lat": 34.2518484, "lng": -97.2879273, "minbr": 5.840041489097838, "manbr": 0.6764526821348846}, {"mabr": 22.937625754527165, "b": 2485.0, "name": "Ardmore Police Department", "nb_arr_rate": 154.64721534085697, "ap_abbr": "Okla.", "mibr": 109.85915492957747, "pct_black": 0.102334967, "p": 24283.0, "state": "OK", "arr_rate_disproportion": 2.0010495485520656, "b_arr_rate": 309.4567404426559, "lat": 34.1939658, "lng": -97.1249568, "minbr": 63.629690797320855, "manbr": 9.129277915405083}, {"mabr": 3.3444816053511706, "b": 598.0, "name": "Cherokee County Sheriff's Office", "nb_arr_rate": 7.005971243182651, "ap_abbr": "Okla.", "mibr": 6.688963210702341, "pct_black": 0.012726924, "p": 46987.0, "state": "OK", "arr_rate_disproportion": 3.5803190120915875, "b_arr_rate": 25.08361204013378, "lat": 35.9043668, "lng": -94.9967964, "minbr": 2.0047856172799587, "manbr": 0.6251482032378366}, {"mabr": 1.2062726176115803, "b": 1658.0, "name": "Choctaw County Sheriff's Office", "nb_arr_rate": 48.054919908466815, "ap_abbr": "Okla.", "mibr": 7.237635705669482, "pct_black": 0.109043078, "p": 15205.0, "state": "OK", "arr_rate_disproportion": 1.8826469067723592, "b_arr_rate": 90.47044632086852, "lat": 34.0276453, "lng": -95.5542077, "minbr": 6.053000664353731, "manbr": 0.8119878939986713}, {"mabr": 0.4609144542772861, "b": 10848.0, "name": "Cleveland County Sheriff's Office", "nb_arr_rate": 6.851580395823721, "ap_abbr": "Okla.", "mibr": 5.899705014749262, "pct_black": 0.042415593, "p": 255755.0, "state": "OK", "arr_rate_disproportion": 1.8970495651692385, "b_arr_rate": 12.997787610619469, "lat": 35.2031167, "lng": -97.3283318, "minbr": 2.62548640912673, "manbr": 0.18782639940875517}, {"mabr": 5.575467941059339, "b": 2511.0, "name": "Moore Police Department", "nb_arr_rate": 62.202777249381775, "ap_abbr": "Okla.", "mibr": 57.745917960971724, "pct_black": 0.045587408, "p": 55081.0, "state": "OK", "arr_rate_disproportion": 3.3804727090709137, "b_arr_rate": 210.2747909199522, "lat": 35.3295982, "lng": -97.4750049, "minbr": 19.04127829560586, "manbr": 1.426669202967472}, {"mabr": 8.760951188986233, "b": 4794.0, "name": "Norman Police Department", "nb_arr_rate": 154.5542772611207, "ap_abbr": "Okla.", "mibr": 75.09386733416771, "pct_black": 0.043218391, "p": 110925.0, "state": "OK", "arr_rate_disproportion": 3.240508028500236, "b_arr_rate": 500.83437630371304, "lat": 35.2405774, "lng": -97.3453056, "minbr": 30.123149692361327, "manbr": 1.5358377853784473}, {"mabr": 0.18459550509945083, "b": 21669.0, "name": "Comanche County Sheriff's Office ", "nb_arr_rate": 6.463013404406955, "ap_abbr": "Okla.", "mibr": 0.23074438137431352, "pct_black": 0.174612, "p": 124098.0, "state": "OK", "arr_rate_disproportion": 1.5066366545606036, "b_arr_rate": 9.737412893996032, "lat": 34.6626279, "lng": -98.4765971, "minbr": 0.4588544259926388, "manbr": 0.205020062677562}, {"mabr": 7.348675304583252, "b": 20684.0, "name": "Lawton Police Department", "nb_arr_rate": 71.45951196461152, "ap_abbr": "Okla.", "mibr": 34.66447495648811, "pct_black": 0.213529892, "p": 96867.0, "state": "OK", "arr_rate_disproportion": 2.3787800713042313, "b_arr_rate": 169.98646296654417, "lat": 34.6170477, "lng": -98.4204004, "minbr": 14.255148786474672, "manbr": 2.848404499691532}, {"mabr": 9.630818619582664, "b": 623.0, "name": "Sapulpa Police Department", "nb_arr_rate": 69.27363084182521, "ap_abbr": "Okla.", "mibr": 77.04654895666131, "pct_black": 0.030325156, "p": 20544.0, "state": "OK", "arr_rate_disproportion": 2.989053667387815, "b_arr_rate": 207.06260032102728, "lat": 36.0020403, "lng": -96.1238283, "minbr": 27.508659203855228, "manbr": 1.4055519301239898}, {"mabr": 2.406738868832732, "b": 831.0, "name": "Custer County Sheriff's Office", "nb_arr_rate": 40.16818079435393, "ap_abbr": "Okla.", "mibr": 4.813477737665464, "pct_black": 0.030252284, "p": 27469.0, "state": "OK", "arr_rate_disproportion": 3.5949930834373633, "b_arr_rate": 144.4043321299639, "lat": 35.6456012, "lng": -98.9973857, "minbr": 3.1158495382536224, "manbr": 0.37540355882573767}, {"mabr": 13.574660633484163, "b": 1768.0, "name": "Enid Police Department", "nb_arr_rate": 94.83102644346896, "ap_abbr": "Okla.", "mibr": 69.00452488687783, "pct_black": 0.035804694, "p": 49379.0, "state": "OK", "arr_rate_disproportion": 2.7376629184768713, "b_arr_rate": 259.6153846153846, "lat": 36.4056866, "lng": -97.8698616, "minbr": 22.51580517107391, "manbr": 2.9615004935834155}, {"mabr": 0.0, "b": 705.0, "name": "Garvin County Sheriff's Office", "nb_arr_rate": 25.454951434632132, "ap_abbr": "Okla.", "mibr": 9.929078014184398, "pct_black": 0.025565709, "p": 27576.0, "state": "OK", "arr_rate_disproportion": 4.012094064949609, "b_arr_rate": 102.1276595744681, "lat": 34.7093497, "lng": -97.3127231, "minbr": 3.3493357150831753, "manbr": 0.18607420639350974}, {"mabr": 16.65205959684487, "b": 1141.0, "name": "Chickasha Police Department", "nb_arr_rate": 119.10036925142666, "ap_abbr": "Okla.", "mibr": 91.14811568799298, "pct_black": 0.071152407, "p": 16036.0, "state": "OK", "arr_rate_disproportion": 2.413654431969425, "b_arr_rate": 287.46713409290095, "lat": 35.0405432, "lng": -97.9471733, "minbr": 38.40214837193689, "manbr": 6.243705941591138}, {"mabr": 0.0, "b": 742.0, "name": "Hughes County Sheriff's Office", "nb_arr_rate": 18.39981901817359, "ap_abbr": "Okla.", "mibr": 4.0431266846361185, "pct_black": 0.052988645, "p": 14003.0, "state": "OK", "arr_rate_disproportion": 1.0986865361672042, "b_arr_rate": 20.21563342318059, "lat": 35.0529339, "lng": -96.2511829, "minbr": 2.3376819244400875, "manbr": 0.6032727546942162}, {"mabr": 0.0, "b": 643.0, "name": "Holdenville Police Department", "nb_arr_rate": 51.28705148205928, "ap_abbr": "Okla.", "mibr": 9.331259720062208, "pct_black": 0.111419165, "p": 5771.0, "state": "OK", "arr_rate_disproportion": 0.9097091225186122, "b_arr_rate": 46.65629860031104, "lat": 35.0841251, "lng": -96.4003251, "minbr": 14.23556942277691, "manbr": 1.9500780031201248}, {"mabr": 3.6939313984168867, "b": 1895.0, "name": "Altus Police Department", "nb_arr_rate": 42.02477955128921, "ap_abbr": "Okla.", "mibr": 33.245382585751976, "pct_black": 0.095644274, "p": 19813.0, "state": "OK", "arr_rate_disproportion": 2.6871945813929856, "b_arr_rate": 112.9287598944591, "lat": 34.6570606, "lng": -99.3090458, "minbr": 13.505971648621498, "manbr": 1.9533430070320348}, {"mabr": 0.0, "b": 962.0, "name": "Kay County Sheriff's Office", "nb_arr_rate": 8.728070175438596, "ap_abbr": "Okla.", "mibr": 8.316008316008316, "pct_black": 0.020660625, "p": 46562.0, "state": "OK", "arr_rate_disproportion": 3.9302541815104637, "b_arr_rate": 34.303534303534306, "lat": 36.8148423, "lng": -97.1437553, "minbr": 2.9166666666666665, "manbr": 0.17543859649122806}, {"mabr": 16.96969696969697, "b": 825.0, "name": "Ponca City Police Department", "nb_arr_rate": 127.02548652389869, "ap_abbr": "Okla.", "mibr": 95.75757575757576, "pct_black": 0.032496947, "p": 25387.0, "state": "OK", "arr_rate_disproportion": 2.8722463092463095, "b_arr_rate": 364.8484848484849, "lat": 36.7210416, "lng": -97.0684445, "minbr": 42.87110170181581, "manbr": 3.257063757023044}, {"mabr": 0.9671179883945841, "b": 1034.0, "name": "LeFlore County Sheriff's Office", "nb_arr_rate": 59.614994934143866, "ap_abbr": "Okla.", "mibr": 15.473887814313345, "pct_black": 0.020522388, "p": 50384.0, "state": "OK", "arr_rate_disproportion": 1.9629503738953094, "b_arr_rate": 117.02127659574468, "lat": 34.8996421, "lng": -94.7034907, "minbr": 6.220871327254306, "manbr": 0.20263424518743667}, {"mabr": 3.252032520325203, "b": 615.0, "name": "Lincoln County Sheriff's Office ", "nb_arr_rate": 11.171192584229603, "ap_abbr": "Okla.", "mibr": 1.6260162601626016, "pct_black": 0.017944154, "p": 34273.0, "state": "OK", "arr_rate_disproportion": 1.892207230582944, "b_arr_rate": 21.13821138211382, "lat": 35.7031175, "lng": -96.8813917, "minbr": 2.7927981460574007, "manbr": 0.4753698972012597}, {"mabr": 0.26288117770767616, "b": 3804.0, "name": "Logan County Sheriff's Department", "nb_arr_rate": 8.017032909262959, "ap_abbr": "Okla.", "mibr": 2.8916929547844377, "pct_black": 0.090900401, "p": 41848.0, "state": "OK", "arr_rate_disproportion": 1.6723069762631226, "b_arr_rate": 13.406940063091483, "lat": 35.9141514, "lng": -97.4507644, "minbr": 1.5508358742508674, "manbr": 0.23656818420775944}, {"mabr": 5.128205128205129, "b": 1365.0, "name": "Guthrie Police Department", "nb_arr_rate": 70.58690233401313, "ap_abbr": "Okla.", "mibr": 22.71062271062271, "pct_black": 0.133941713, "p": 10191.0, "state": "OK", "arr_rate_disproportion": 1.8162736140264233, "b_arr_rate": 128.2051282051282, "lat": 35.8584552, "lng": -97.4185682, "minbr": 21.98051212327215, "manbr": 2.1527305687740768}, {"mabr": 0.3455425017277125, "b": 2894.0, "name": "McCurtain County Sheriff's Office ", "nb_arr_rate": 9.58455894503751, "ap_abbr": "Okla.", "mibr": 1.38217000691085, "pct_black": 0.087297517, "p": 33151.0, "state": "OK", "arr_rate_disproportion": 0.9012999547220171, "b_arr_rate": 8.638562543192812, "lat": 34.1170728, "lng": -94.7660863, "minbr": 1.9499619922662523, "manbr": 0.5949036586575007}, {"mabr": 5.447941888619855, "b": 1652.0, "name": "Idabel Police Department", "nb_arr_rate": 155.46845837999254, "ap_abbr": "Okla.", "mibr": 67.19128329297821, "pct_black": 0.235663338, "p": 7010.0, "state": "OK", "arr_rate_disproportion": 1.125240895389633, "b_arr_rate": 174.93946731234868, "lat": 33.9020605, "lng": -94.8299701, "minbr": 68.4957073534901, "manbr": 1.3064576334453155}, {"mabr": 3.0911901081916535, "b": 647.0, "name": "McIntosh County Sheriff's Department ", "nb_arr_rate": 13.976026523845958, "ap_abbr": "Okla.", "mibr": 1.5455950540958268, "pct_black": 0.031947462, "p": 20252.0, "state": "OK", "arr_rate_disproportion": 2.3223693859362133, "b_arr_rate": 32.45749613601237, "lat": 35.3690916, "lng": -95.6717644, "minbr": 5.151747003315481, "manbr": 1.1731701096659015}, {"mabr": 2.1170610211706102, "b": 8030.0, "name": "Muskogee County Sheriff's Office", "nb_arr_rate": 49.475857687420586, "ap_abbr": "Okla.", "mibr": 4.109589041095891, "pct_black": 0.113114523, "p": 70990.0, "state": "OK", "arr_rate_disproportion": 2.730994724838037, "b_arr_rate": 135.11830635118307, "lat": 35.6175506, "lng": -95.3839106, "minbr": 2.6683608640406606, "manbr": 1.3024142312579416}, {"mabr": 0.0721435656957345, "b": 110890.0, "name": "Oklahoma County Sheriff's Office", "nb_arr_rate": 8.092236356486211, "ap_abbr": "Okla.", "mibr": 0.7394715483812787, "pct_black": 0.154306858, "p": 718633.0, "state": "OK", "arr_rate_disproportion": 2.0114825238703262, "b_arr_rate": 16.277392010100098, "lat": 35.5546109, "lng": -97.4094007, "minbr": 0.33402276949302584, "manbr": 0.05759013267121135}, {"mabr": 13.071895424836601, "b": 1071.0, "name": "Bethany Police Department", "nb_arr_rate": 61.067853170189096, "ap_abbr": "Okla.", "mibr": 60.690943043884225, "pct_black": 0.056217521, "p": 19051.0, "state": "OK", "arr_rate_disproportion": 7.124982354811992, "b_arr_rate": 435.1073762838469, "lat": 35.5071745, "lng": -97.6417337, "minbr": 14.682981090100112, "manbr": 1.0011123470522802}, {"mabr": 5.565862708719852, "b": 3773.0, "name": "Del City Police Department", "nb_arr_rate": 98.5819237997608, "ap_abbr": "Okla.", "mibr": 72.35621521335807, "pct_black": 0.176870429, "p": 21332.0, "state": "OK", "arr_rate_disproportion": 4.05968982384644, "b_arr_rate": 400.2120328650941, "lat": 35.4482782, "lng": -97.4407847, "minbr": 17.370009681644742, "manbr": 1.7085255424568597}, {"mabr": 4.666666666666667, "b": 4500.0, "name": "Edmond Police Department", "nb_arr_rate": 46.641960860802286, "ap_abbr": "Okla.", "mibr": 54.22222222222222, "pct_black": 0.05527916, "p": 81405.0, "state": "OK", "arr_rate_disproportion": 3.158815165876778, "b_arr_rate": 147.33333333333334, "lat": 35.6738074, "lng": -97.4130764, "minbr": 18.490345231129314, "manbr": 0.6111436187504063}, {"mabr": 7.654777927321669, "b": 11888.0, "name": "Midwest City Police Department", "nb_arr_rate": 75.11239790033662, "ap_abbr": "Okla.", "mibr": 33.563257065948854, "pct_black": 0.218645969, "p": 54371.0, "state": "OK", "arr_rate_disproportion": 2.368590312044347, "b_arr_rate": 177.91049798115748, "lat": 35.458752, "lng": -97.3745705, "minbr": 14.970694160016947, "manbr": 2.330343902266789}, {"mabr": 13.828788607276142, "b": 87354.0, "name": "Oklahoma City Police Department", "nb_arr_rate": 51.05704919363842, "ap_abbr": "Okla.", "mibr": 36.34636078485244, "pct_black": 0.150610605, "p": 579999.0, "state": "OK", "arr_rate_disproportion": 2.888764964748591, "b_arr_rate": 147.49181491402797, "lat": 35.4670795, "lng": -97.5136565, "minbr": 11.608764932151955, "manbr": 3.521805762770352}, {"mabr": 1.335113484646195, "b": 749.0, "name": "Village Police Department", "nb_arr_rate": 30.317848410757946, "ap_abbr": "Okla.", "mibr": 18.69158878504673, "pct_black": 0.083883974, "p": 8929.0, "state": "OK", "arr_rate_disproportion": 4.05142340324734, "b_arr_rate": 122.83044058744993, "lat": 35.5702758, "lng": -97.5574991, "minbr": 4.767726161369193, "manbr": 1.2224938875305624}, {"mabr": 8.097165991902834, "b": 988.0, "name": "Warr Acres Police Department", "nb_arr_rate": 85.47763666482606, "ap_abbr": "Okla.", "mibr": 87.04453441295547, "pct_black": 0.098376979, "p": 10043.0, "state": "OK", "arr_rate_disproportion": 3.3628607894213767, "b_arr_rate": 287.4493927125506, "lat": 35.5261042, "lng": -97.6181064, "minbr": 24.516841524019878, "manbr": 3.0922142462727775}, {"mabr": 0.2856326763781777, "b": 3501.0, "name": "Okmulgee County Sheriff's Office", "nb_arr_rate": 5.988842704003501, "ap_abbr": "Okla.", "mibr": 3.9988574692944874, "pct_black": 0.087374279, "p": 40069.0, "state": "OK", "arr_rate_disproportion": 1.669294748141105, "b_arr_rate": 9.997143673236218, "lat": 35.646879, "lng": -95.96458, "minbr": 2.2423977247866986, "manbr": 0.2187705097352877}, {"mabr": 5.172413793103448, "b": 2320.0, "name": "Okmulgee Police Department ", "nb_arr_rate": 137.6862313768623, "ap_abbr": "Okla.", "mibr": 55.17241379310345, "pct_black": 0.188296405, "p": 12321.0, "state": "OK", "arr_rate_disproportion": 1.753111461698345, "b_arr_rate": 241.37931034482762, "lat": 35.6308038, "lng": -95.9563169, "minbr": 41.795820417958204, "manbr": 1.8998100189981002}, {"mabr": 0.0, "b": 522.0, "name": "Hominy Police Department", "nb_arr_rate": 59.15215248110417, "ap_abbr": "Okla.", "mibr": 15.32567049808429, "pct_black": 0.146423562, "p": 3565.0, "state": "OK", "arr_rate_disproportion": 0.6477224350787569, "b_arr_rate": 38.314176245210724, "lat": 36.4222309, "lng": -96.3911352, "minbr": 19.38876109102859, "manbr": 1.3144922773578704}, {"mabr": 6.970260223048327, "b": 2152.0, "name": "Stillwater Police Department", "nb_arr_rate": 75.75339948548327, "ap_abbr": "Okla.", "mibr": 64.59107806691449, "pct_black": 0.047102084, "p": 45688.0, "state": "OK", "arr_rate_disproportion": 2.7297043831904433, "b_arr_rate": 206.78438661710035, "lat": 36.137051, "lng": -97.0724206, "minbr": 34.77581771407571, "manbr": 1.3552002940095553}, {"mabr": 0.0, "b": 1525.0, "name": "Pittsburg County Sheriff's Office", "nb_arr_rate": 8.146777396641994, "ap_abbr": "Okla.", "mibr": 3.934426229508197, "pct_black": 0.033270066, "p": 45837.0, "state": "OK", "arr_rate_disproportion": 1.7707897007402023, "b_arr_rate": 14.426229508196721, "lat": 34.9255401, "lng": -95.7481302, "minbr": 1.5797075284347355, "manbr": 0.3159415056869471}, {"mabr": 3.0627871362940273, "b": 1306.0, "name": "McAlester Police Department", "nb_arr_rate": 76.18434151197516, "ap_abbr": "Okla.", "mibr": 35.987748851454825, "pct_black": 0.071043899, "p": 18383.0, "state": "OK", "arr_rate_disproportion": 1.698547942270818, "b_arr_rate": 129.40275650842267, "lat": 34.9268159, "lng": -95.7699436, "minbr": 17.157580371259588, "manbr": 1.9324237278210459}, {"mabr": 2.2172949002217295, "b": 902.0, "name": "Pontotoc County Sheriff's Office", "nb_arr_rate": 29.516261273572013, "ap_abbr": "Okla.", "mibr": 27.716186252771617, "pct_black": 0.024058466, "p": 37492.0, "state": "OK", "arr_rate_disproportion": 2.8921635049683827, "b_arr_rate": 85.36585365853658, "lat": 34.7210711, "lng": -96.692738, "minbr": 8.0896419786827, "manbr": 1.3938234490297896}, {"mabr": 26.610644257703083, "b": 714.0, "name": "Ada Police Department", "nb_arr_rate": 139.59990059642146, "ap_abbr": "Okla.", "mibr": 51.82072829131653, "pct_black": 0.042474717, "p": 16810.0, "state": "OK", "arr_rate_disproportion": 1.565097066864129, "b_arr_rate": 218.4873949579832, "lat": 34.7684324, "lng": -96.6691079, "minbr": 48.45924453280318, "manbr": 8.325049701789265}, {"mabr": 16.653449643140366, "b": 1261.0, "name": "Shawnee Police Department", "nb_arr_rate": 161.94572667505946, "ap_abbr": "Okla.", "mibr": 111.02299762093577, "pct_black": 0.042234652, "p": 29857.0, "state": "OK", "arr_rate_disproportion": 2.6883621068306525, "b_arr_rate": 435.36875495638384, "lat": 35.3639026, "lng": -96.9604529, "minbr": 44.306896069380336, "manbr": 5.874947545111205}, {"mabr": 5.780346820809249, "b": 865.0, "name": "Rogers County Sheriff's Office", "nb_arr_rate": 11.668991166899115, "ap_abbr": "Okla.", "mibr": 3.468208092485549, "pct_black": 0.009953397, "p": 86905.0, "state": "OK", "arr_rate_disproportion": 2.575869930681897, "b_arr_rate": 30.057803468208093, "lat": 36.3780816, "lng": -95.6013368, "minbr": 3.3356578335657834, "manbr": 0.7554625755462575}, {"mabr": 0.0, "b": 870.0, "name": "Stephens County Sheriff's Office ", "nb_arr_rate": 31.033546108922994, "ap_abbr": "Okla.", "mibr": 2.2988505747126435, "pct_black": 0.019312733, "p": 45048.0, "state": "OK", "arr_rate_disproportion": 3.222319474835886, "b_arr_rate": 100.0, "lat": 34.4813609, "lng": -97.8556068, "minbr": 2.331477205849065, "manbr": 0.8601566390511114}, {"mabr": 3.846153846153846, "b": 780.0, "name": "Duncan Police Department", "nb_arr_rate": 65.33927861904552, "ap_abbr": "Okla.", "mibr": 75.64102564102564, "pct_black": 0.033289232, "p": 23431.0, "state": "OK", "arr_rate_disproportion": 2.7862456687456687, "b_arr_rate": 182.05128205128204, "lat": 34.5061503, "lng": -98.0053843, "minbr": 22.824599355436845, "manbr": 1.0154077082689505}, {"mabr": 0.5402985535435867, "b": 64779.0, "name": "Tulsa Police Department", "nb_arr_rate": 3.4699530655893533, "ap_abbr": "Okla.", "mibr": 1.0805971070871734, "pct_black": 0.107356112, "p": 603403.0, "state": "OK", "arr_rate_disproportion": 2.1621132048991267, "b_arr_rate": 7.502431343490946, "lat": 36.1201205, "lng": -95.9417313, "minbr": 0.42701402091254753, "manbr": 0.2376425855513308}, {"mabr": 5.60485754320411, "b": 4282.0, "name": "Broken Arrow Police Department", "nb_arr_rate": 43.53481092970138, "ap_abbr": "Okla.", "mibr": 21.48528724894909, "pct_black": 0.043318159, "p": 98850.0, "state": "OK", "arr_rate_disproportion": 2.725087092320753, "b_arr_rate": 118.63615133115367, "lat": 36.0365287, "lng": -95.7809963, "minbr": 9.252601302766264, "manbr": 1.0257169444209457}, {"mabr": 13.190914355575574, "b": 62164.0, "name": "Tulsa Police Department", "nb_arr_rate": 62.809711835313664, "ap_abbr": "Okla.", "mibr": 37.06325204298307, "pct_black": 0.158619669, "p": 391906.0, "state": "OK", "arr_rate_disproportion": 2.626198569432693, "b_arr_rate": 164.95077536838042, "lat": 36.1279488, "lng": -95.9023162, "minbr": 16.22480606049578, "manbr": 2.49892340071935}, {"mabr": 7.49063670411985, "b": 801.0, "name": "Owasso Police Department", "nb_arr_rate": 42.86120793910507, "ap_abbr": "Okla.", "mibr": 24.96878901373283, "pct_black": 0.027701885, "p": 28915.0, "state": "OK", "arr_rate_disproportion": 3.378788961930367, "b_arr_rate": 144.81897627965043, "lat": 36.2875553, "lng": -95.8358603, "minbr": 10.564131749306396, "manbr": 1.2093618837589812}, {"mabr": 0.3676470588235294, "b": 2720.0, "name": "Wagoner County Sheriff's Office", "nb_arr_rate": 17.551339444326015, "ap_abbr": "Okla.", "mibr": 1.4705882352941175, "pct_black": 0.037216939, "p": 73085.0, "state": "OK", "arr_rate_disproportion": 2.6602628602048104, "b_arr_rate": 46.69117647058823, "lat": 35.9634793, "lng": -95.5141004, "minbr": 1.2079869253179847, "manbr": 0.17053933063312726}, {"mabr": 53.672316384180796, "b": 708.0, "name": "Wagoner Police Department", "nb_arr_rate": 100.85357846355876, "ap_abbr": "Okla.", "mibr": 72.03389830508475, "pct_black": 0.085065481, "p": 8323.0, "state": "OK", "arr_rate_disproportion": 3.5291975635593222, "b_arr_rate": 355.93220338983053, "lat": 35.9635283, "lng": -95.3795955, "minbr": 22.849638870650033, "manbr": 6.697307944845699}, {"mabr": 0.0, "b": 1231.0, "name": "Washington County Sheriff's Office", "nb_arr_rate": 10.493516936375515, "ap_abbr": "Okla.", "mibr": 0.8123476848090982, "pct_black": 0.024148619, "p": 50976.0, "state": "OK", "arr_rate_disproportion": 2.4772558210469633, "b_arr_rate": 25.995125913891144, "lat": 36.7043803, "lng": -95.9061545, "minbr": 1.105638757664087, "manbr": 0.34174288873253594}, {"mabr": 8.014247551202137, "b": 1123.0, "name": "Bartlesville Police Department", "nb_arr_rate": 80.22641291477748, "ap_abbr": "Okla.", "mibr": 49.86642920747997, "pct_black": 0.031412587, "p": 35750.0, "state": "OK", "arr_rate_disproportion": 3.7294273092168657, "b_arr_rate": 299.1985752448798, "lat": 36.7380684, "lng": -95.948021, "minbr": 16.258988650475064, "manbr": 2.021543881941837}, {"mabr": 0.0, "b": 1985.0, "name": "Jackson County Sheriff's Office", "nb_arr_rate": 18.110461551040434, "ap_abbr": "Okla.", "mibr": 2.0151133501259446, "pct_black": 0.07505861, "p": 26446.0, "state": "OK", "arr_rate_disproportion": 2.837331908046238, "b_arr_rate": 51.385390428211586, "lat": 34.5939486, "lng": -99.4122097, "minbr": 1.349086300641838, "manbr": 0.122644209149258}]