[{"mabr": 1.0560519902518277, "b": 12310.0, "name": "Anderson County Sheriff's Office", "nb_arr_rate": 45.61411112074196, "ap_abbr": "Texas", "mibr": 3.8992688870836716, "pct_black": 0.210578535, "p": 58458.0, "state": "TX", "arr_rate_disproportion": 1.4567869237107114, "b_arr_rate": 66.45004061738423, "lat": 31.841266, "lng": -95.6617444, "minbr": 3.8138164167461213, "manbr": 0.9534541041865303}, {"mabr": 7.114987376635299, "b": 4357.0, "name": "Palestine Police Department Public Safety", "nb_arr_rate": 51.75896900034831, "ap_abbr": "Texas", "mibr": 26.623823731925636, "pct_black": 0.232845233, "p": 18712.0, "state": "TX", "arr_rate_disproportion": 2.509823921592734, "b_arr_rate": 129.90589855405094, "lat": 31.7545115, "lng": -95.6469527, "minbr": 12.957157784743991, "manbr": 1.3932427725531173}, {"mabr": 6.122448979591836, "b": 980.0, "name": "Diboll Police Department", "nb_arr_rate": 42.413066385669126, "ap_abbr": "Texas", "mibr": 28.571428571428573, "pct_black": 0.20519263, "p": 4776.0, "state": "TX", "arr_rate_disproportion": 2.2855875269362405, "b_arr_rate": 96.93877551020408, "lat": 31.1883154, "lng": -94.7828848, "minbr": 16.0695468914647, "manbr": 1.053740779768177}, {"mabr": 7.810059356451109, "b": 9603.0, "name": "Lufkin Police Department", "nb_arr_rate": 75.16493873704053, "ap_abbr": "Texas", "mibr": 16.244923461418306, "pct_black": 0.273847207, "p": 35067.0, "state": "TX", "arr_rate_disproportion": 2.065643671305695, "b_arr_rate": 155.26398000624806, "lat": 31.3203339, "lng": -94.7306157, "minbr": 13.941250392711279, "manbr": 2.8667923342758406}, {"mabr": 8.245877061469265, "b": 2668.0, "name": "Austin County Sheriff's Office", "nb_arr_rate": 13.670433803254497, "ap_abbr": "Texas", "mibr": 5.247376311844078, "pct_black": 0.093887462, "p": 28417.0, "state": "TX", "arr_rate_disproportion": 4.057827620280769, "b_arr_rate": 55.472263868065966, "lat": 29.8919013, "lng": -96.2701697, "minbr": 1.2816031690551088, "manbr": 1.9806594430851683}, {"mabr": 20.51983584131327, "b": 731.0, "name": "Sealy Police Department", "nb_arr_rate": 75.642965204236, "ap_abbr": "Texas", "mibr": 39.67168262653899, "pct_black": 0.121448746, "p": 6019.0, "state": "TX", "arr_rate_disproportion": 2.730807113543092, "b_arr_rate": 206.56634746922026, "lat": 29.7648982, "lng": -96.161338, "minbr": 24.01664145234493, "manbr": 3.7821482602118004}, {"mabr": 4.6777546777546775, "b": 5772.0, "name": "Bastrop County Sheriff's Office", "nb_arr_rate": 43.933390839047355, "ap_abbr": "Texas", "mibr": 14.553014553014552, "pct_black": 0.077820172, "p": 74171.0, "state": "TX", "arr_rate_disproportion": 2.27932782392017, "b_arr_rate": 100.13860013860014, "lat": 30.1031276, "lng": -97.3118587, "minbr": 6.476702875773038, "manbr": 1.8859924852702525}, {"mabr": 8.968609865470851, "b": 892.0, "name": "Bastrop Police Department ", "nb_arr_rate": 164.08472968700602, "ap_abbr": "Texas", "mibr": 42.600896860986545, "pct_black": 0.123579939, "p": 7218.0, "state": "TX", "arr_rate_disproportion": 1.7422367090904378, "b_arr_rate": 285.8744394618834, "lat": 30.1111382, "lng": -97.3156868, "minbr": 28.295921593423966, "manbr": 2.5292443882390137}, {"mabr": 9.23951670220327, "b": 1407.0, "name": "Elgin Police Department", "nb_arr_rate": 116.97384066587396, "ap_abbr": "Texas", "mibr": 60.41222459132907, "pct_black": 0.172956361, "p": 8135.0, "state": "TX", "arr_rate_disproportion": 2.108369027976834, "b_arr_rate": 246.6240227434257, "lat": 30.35294, "lng": -97.3886714, "minbr": 36.11771700356718, "manbr": 2.3781212841854935}, {"mabr": 0.0, "b": 2592.0, "name": "Bee County Sheriff's Office", "nb_arr_rate": 26.82018517885818, "ap_abbr": "Texas", "mibr": 1.5432098765432098, "pct_black": 0.081353379, "p": 31861.0, "state": "TX", "arr_rate_disproportion": 0.37400428560195015, "b_arr_rate": 10.030864197530864, "lat": 28.416077, "lng": -97.7425858, "minbr": 5.398202876763811, "manbr": 1.3666336396870409}, {"mabr": 0.029985007496251874, "b": 66700.0, "name": "Bell County Sheriff's Office", "nb_arr_rate": 1.979181637136346, "ap_abbr": "Texas", "mibr": 0.10494752623688156, "pct_black": 0.214998308, "p": 310235.0, "state": "TX", "arr_rate_disproportion": 0.41663063696367575, "b_arr_rate": 0.8245877061469264, "lat": 31.0421099, "lng": -97.4819209, "minbr": 0.5379103619602932, "manbr": 0.06980516147576324}, {"mabr": 8.130081300813009, "b": 1476.0, "name": "Belton Police Department", "nb_arr_rate": 76.70250896057348, "ap_abbr": "Texas", "mibr": 44.71544715447155, "pct_black": 0.081027668, "p": 18216.0, "state": "TX", "arr_rate_disproportion": 2.314223843173011, "b_arr_rate": 177.50677506775068, "lat": 31.055518, "lng": -97.4791693, "minbr": 22.879330943847073, "manbr": 1.8518518518518519}, {"mabr": 3.938484621155289, "b": 5332.0, "name": "Harker Heights Police Department", "nb_arr_rate": 58.171096967427935, "ap_abbr": "Texas", "mibr": 15.566391597899475, "pct_black": 0.199700375, "p": 26700.0, "state": "TX", "arr_rate_disproportion": 2.7275515580423666, "b_arr_rate": 158.66466616654165, "lat": 31.0567082, "lng": -97.6442214, "minbr": 12.027330587794834, "manbr": 1.0295769374766006}, {"mabr": 4.88420087135978, "b": 43610.0, "name": "Killeen Police Department", "nb_arr_rate": 53.112879695413405, "ap_abbr": "Texas", "mibr": 33.98303141481312, "pct_black": 0.340913533, "p": 127921.0, "state": "TX", "arr_rate_disproportion": 2.353370182273571, "b_arr_rate": 124.99426736986929, "lat": 31.0776691, "lng": -97.731952, "minbr": 14.161853138973562, "manbr": 1.2572499436609694}, {"mabr": 0.0, "b": 592.0, "name": "Nolanville Police Department", "nb_arr_rate": 49.63185164985001, "ap_abbr": "Texas", "mibr": 20.27027027027027, "pct_black": 0.138999765, "p": 4259.0, "state": "TX", "arr_rate_disproportion": 1.5315470002970004, "b_arr_rate": 76.01351351351352, "lat": 31.0751873, "lng": -97.6116283, "minbr": 14.998636487592037, "manbr": 0.8181074447777474}, {"mabr": 4.736371760500447, "b": 11190.0, "name": "City Of Temple Police Department", "nb_arr_rate": 106.91652097902099, "ap_abbr": "Texas", "mibr": 63.717605004468275, "pct_black": 0.169283834, "p": 66102.0, "state": "TX", "arr_rate_disproportion": 2.775001221526447, "b_arr_rate": 296.6934763181412, "lat": 31.1056563, "lng": -97.3825222, "minbr": 32.925407925407924, "manbr": 0.9287587412587412}, {"mabr": 0.47326443844458926, "b": 128892.0, "name": "Bexar County Sheriff's Office", "nb_arr_rate": 7.812692125071175, "ap_abbr": "Texas", "mibr": 2.6223504949880523, "pct_black": 0.075165634, "p": 1714773.0, "state": "TX", "arr_rate_disproportion": 2.404186290994679, "b_arr_rate": 18.783167302858207, "lat": 29.4486708, "lng": -98.5201465, "minbr": 0.6961430271249861, "manbr": 0.14313810430921362}, {"mabr": 4.692387904066736, "b": 3836.0, "name": "Converse Police Department", "nb_arr_rate": 72.62219746553404, "ap_abbr": "Texas", "mibr": 11.470281543274245, "pct_black": 0.210792395, "p": 18198.0, "state": "TX", "arr_rate_disproportion": 2.4553200891388745, "b_arr_rate": 178.310740354536, "lat": 29.5141252, "lng": -98.3052741, "minbr": 7.58947221835399, "manbr": 1.5318200807686952}, {"mabr": 3.436426116838488, "b": 1164.0, "name": "Kirby Police Department", "nb_arr_rate": 50.90696313633704, "ap_abbr": "Texas", "mibr": 18.900343642611684, "pct_black": 0.1455, "p": 8000.0, "state": "TX", "arr_rate_disproportion": 1.501965082750721, "b_arr_rate": 76.46048109965636, "lat": 29.4614305, "lng": -98.3858891, "minbr": 12.43417203042715, "manbr": 1.9016968987712113}, {"mabr": 7.982969664715274, "b": 1879.0, "name": "Universal City Police Department", "nb_arr_rate": 135.36724521049786, "ap_abbr": "Texas", "mibr": 24.48110697179351, "pct_black": 0.10140313, "p": 18530.0, "state": "TX", "arr_rate_disproportion": 2.555482937789504, "b_arr_rate": 345.9286854709952, "lat": 29.5519998, "lng": -98.3075775, "minbr": 24.32286349168218, "manbr": 1.741637138910576}, {"mabr": 2.994011976047904, "b": 668.0, "name": "Windcrest Police Department", "nb_arr_rate": 142.24872231686544, "ap_abbr": "Texas", "mibr": 58.38323353293413, "pct_black": 0.12453393, "p": 5364.0, "state": "TX", "arr_rate_disproportion": 3.199254186238301, "b_arr_rate": 455.0898203592814, "lat": 29.5148315, "lng": -98.3813411, "minbr": 36.626916524701876, "manbr": 1.2776831345826236}, {"mabr": 2.281802624073018, "b": 1753.0, "name": "Live Oak Police Department", "nb_arr_rate": 76.28757250834944, "ap_abbr": "Texas", "mibr": 7.986309184255562, "pct_black": 0.133500876, "p": 13131.0, "state": "TX", "arr_rate_disproportion": 1.869408860649683, "b_arr_rate": 142.6126640045636, "lat": 29.5553953, "lng": -98.3400424, "minbr": 8.964668658815258, "manbr": 1.4941114431358762}, {"mabr": 10.0, "b": 500.0, "name": "Selma Police Department", "nb_arr_rate": 149.6031746031746, "ap_abbr": "Texas", "mibr": 22.0, "pct_black": 0.090252708, "p": 5540.0, "state": "TX", "arr_rate_disproportion": 2.259310344827586, "b_arr_rate": 338.0, "lat": 29.5864752, "lng": -98.3153116, "minbr": 14.285714285714286, "manbr": 2.5793650793650795}, {"mabr": 1.1167195247241704, "b": 22387.0, "name": "Bowie County Sheriff's Office", "nb_arr_rate": 38.9580780301519, "ap_abbr": "Texas", "mibr": 2.09943270648144, "pct_black": 0.241851672, "p": 92565.0, "state": "TX", "arr_rate_disproportion": 1.4057142513572758, "b_arr_rate": 54.76392549247331, "lat": 33.4460512, "lng": -94.4223747, "minbr": 1.9521787454757902, "manbr": 1.2967026703525322}, {"mabr": 4.739336492890995, "b": 844.0, "name": "New Boston Police Department", "nb_arr_rate": 86.8861305990286, "ap_abbr": "Texas", "mibr": 16.587677725118485, "pct_black": 0.185494506, "p": 4550.0, "state": "TX", "arr_rate_disproportion": 2.0864045803773807, "b_arr_rate": 181.2796208530806, "lat": 33.4611095, "lng": -94.4190965, "minbr": 13.221802482460875, "manbr": 1.618996222342148}, {"mabr": 13.974121996303142, "b": 13525.0, "name": "Texarkana Police Department", "nb_arr_rate": 125.27309272044045, "ap_abbr": "Texas", "mibr": 59.66728280961183, "pct_black": 0.371453682, "p": 36411.0, "state": "TX", "arr_rate_disproportion": 2.638818965511683, "b_arr_rate": 330.57301293900184, "lat": 33.4481054, "lng": -94.0812172, "minbr": 21.62894345888316, "manbr": 3.320807480555798}, {"mabr": 2.8818443804034586, "b": 1388.0, "name": "Wake Village Police Department", "nb_arr_rate": 30.458089668615983, "ap_abbr": "Texas", "mibr": 4.322766570605188, "pct_black": 0.252731245, "p": 5492.0, "state": "TX", "arr_rate_disproportion": 2.176184438040346, "b_arr_rate": 66.28242074927954, "lat": 33.4240495, "lng": -94.118707, "minbr": 3.898635477582846, "manbr": 0.7309941520467836}, {"mabr": 1.1917057281321999, "b": 37761.0, "name": "Brazoria County Sheriff's Office", "nb_arr_rate": 20.71494707793976, "ap_abbr": "Texas", "mibr": 6.302799184343635, "pct_black": 0.120578224, "p": 313166.0, "state": "TX", "arr_rate_disproportion": 1.8524268636303594, "b_arr_rate": 38.37292444585683, "lat": 29.1678175, "lng": -95.434647, "minbr": 3.896080318077014, "manbr": 0.41393583994480854}, {"mabr": 4.032258064516129, "b": 744.0, "name": "Alvin Police Department", "nb_arr_rate": 113.82598331346841, "ap_abbr": "Texas", "mibr": 72.58064516129032, "pct_black": 0.030698135, "p": 24236.0, "state": "TX", "arr_rate_disproportion": 2.397075381410798, "b_arr_rate": 272.8494623655914, "lat": 29.4272283, "lng": -95.225373, "minbr": 40.65213689766729, "manbr": 2.043248765537204}, {"mabr": 7.675906183368869, "b": 2345.0, "name": "Angleton Police Department ", "nb_arr_rate": 84.03463098625659, "ap_abbr": "Texas", "mibr": 46.05543710021322, "pct_black": 0.124324038, "p": 18862.0, "state": "TX", "arr_rate_disproportion": 2.2632561769169794, "b_arr_rate": 190.1918976545842, "lat": 29.1691953, "lng": -95.4289732, "minbr": 27.850093842707512, "manbr": 3.2088151601380397}, {"mabr": 24.74402730375427, "b": 1172.0, "name": "Clute Police Department ", "nb_arr_rate": 159.37842414583127, "ap_abbr": "Texas", "mibr": 121.160409556314, "pct_black": 0.104540184, "p": 11211.0, "state": "TX", "arr_rate_disproportion": 2.1253642278156994, "b_arr_rate": 338.73720136518773, "lat": 29.0271354, "lng": -95.3987953, "minbr": 70.02689510907462, "manbr": 6.972806056380118}, {"mabr": 3.4083162917518743, "b": 1467.0, "name": "Freeport Police Department ", "nb_arr_rate": 99.31959931959932, "ap_abbr": "Texas", "mibr": 62.71301976823449, "pct_black": 0.121752843, "p": 12049.0, "state": "TX", "arr_rate_disproportion": 1.5922927299413614, "b_arr_rate": 158.14587593728697, "lat": 28.9409337, "lng": -95.3573922, "minbr": 48.95104895104895, "manbr": 2.268002268002268}, {"mabr": 5.10948905109489, "b": 1370.0, "name": "Lake Jackson Police Department", "nb_arr_rate": 56.242395698418306, "ap_abbr": "Texas", "mibr": 16.78832116788321, "pct_black": 0.051026109, "p": 26849.0, "state": "TX", "arr_rate_disproportion": 3.2056239526082284, "b_arr_rate": 180.2919708029197, "lat": 29.0508635, "lng": -95.4512295, "minbr": 12.12763452254798, "manbr": 0.7457121551081283}, {"mabr": 2.2701475595913734, "b": 881.0, "name": "Manvel Police Department", "nb_arr_rate": 50.95393206142392, "ap_abbr": "Texas", "mibr": 9.080590238365494, "pct_black": 0.17011006, "p": 5179.0, "state": "TX", "arr_rate_disproportion": 1.2252058940908783, "b_arr_rate": 62.42905788876277, "lat": 29.4814606, "lng": -95.3614017, "minbr": 11.400651465798045, "manbr": 2.559329920893439}, {"mabr": 4.61168293008956, "b": 14962.0, "name": "Pearland Police Department", "nb_arr_rate": 95.15008520120591, "ap_abbr": "Texas", "mibr": 32.28178051062692, "pct_black": 0.16396353, "p": 91252.0, "state": "TX", "arr_rate_disproportion": 3.7200531468994544, "b_arr_rate": 353.9633738804973, "lat": 29.5557611, "lng": -95.3230704, "minbr": 13.291388124262681, "manbr": 1.035522348931708}, {"mabr": 2.7777777777777777, "b": 720.0, "name": "Winona Police Department", "nb_arr_rate": 48.582995951417004, "ap_abbr": "Texas", "mibr": 12.5, "pct_black": 0.195439739, "p": 3684.0, "state": "TX", "arr_rate_disproportion": 1.715277777777778, "b_arr_rate": 83.33333333333334, "lat": 29.0460314, "lng": -95.698269, "minbr": 9.446693657219972, "manbr": 0.33738191632928477}, {"mabr": 13.996889580093312, "b": 643.0, "name": "West Columbia Police Department ", "nb_arr_rate": 159.41140404659717, "ap_abbr": "Texas", "mibr": 45.10108864696734, "pct_black": 0.164660691, "p": 3905.0, "state": "TX", "arr_rate_disproportion": 1.6292439286996052, "b_arr_rate": 259.72006220839813, "lat": 29.1419256, "lng": -95.6494515, "minbr": 41.079092581238505, "manbr": 5.518087063151441}, {"mabr": 0.2801905295601009, "b": 21414.0, "name": "Brazos County Sheriff's Office", "nb_arr_rate": 5.287222449650305, "ap_abbr": "Texas", "mibr": 1.260857383020454, "pct_black": 0.109899359, "p": 194851.0, "state": "TX", "arr_rate_disproportion": 2.8793351489190764, "b_arr_rate": 15.223685439432145, "lat": 30.6567254, "lng": -96.3023887, "minbr": 1.176219607119588, "manbr": 0.03459469432704671}, {"mabr": 13.601978469595577, "b": 13748.0, "name": "Bryan Police Department", "nb_arr_rate": 59.10044353353722, "ap_abbr": "Texas", "mibr": 39.933081175443704, "pct_black": 0.18041758, "p": 76201.0, "state": "TX", "arr_rate_disproportion": 3.073181985259776, "b_arr_rate": 181.6264183881292, "lat": 30.6665755, "lng": -96.3655202, "minbr": 15.115366755800363, "manbr": 2.4018061582309898}, {"mabr": 6.109979633401222, "b": 6383.0, "name": "College Station Police Department", "nb_arr_rate": 65.41372293481491, "ap_abbr": "Texas", "mibr": 50.91649694501018, "pct_black": 0.068007714, "p": 93857.0, "state": "TX", "arr_rate_disproportion": 4.8355135810271985, "b_arr_rate": 316.30894563684785, "lat": 30.588623, "lng": -96.2960096, "minbr": 23.24119166838146, "manbr": 0.640190227953449}, {"mabr": 0.7235890014471781, "b": 1382.0, "name": "Brown County Sheriff's Office", "nb_arr_rate": 58.762662019387875, "ap_abbr": "Texas", "mibr": 13.024602026049205, "pct_black": 0.036267255, "p": 38106.0, "state": "TX", "arr_rate_disproportion": 1.9578869859936237, "b_arr_rate": 115.05065123010131, "lat": 31.7641026, "lng": -98.9984697, "minbr": 6.017862977889119, "manbr": 0.43568238753948374}, {"mabr": 13.598326359832637, "b": 956.0, "name": "Brownwood Police Department", "nb_arr_rate": 72.1688850098189, "ap_abbr": "Texas", "mibr": 34.51882845188285, "pct_black": 0.049564496, "p": 19288.0, "state": "TX", "arr_rate_disproportion": 2.101648655743097, "b_arr_rate": 151.67364016736403, "lat": 31.7119322, "lng": -98.9761226, "minbr": 15.982980580405847, "manbr": 3.0547676194632336}, {"mabr": 4.289799809342231, "b": 2098.0, "name": "Burleson County Sheriff's Office", "nb_arr_rate": 70.11730399628868, "ap_abbr": "Texas", "mibr": 27.16873212583413, "pct_black": 0.122069006, "p": 17187.0, "state": "TX", "arr_rate_disproportion": 2.0801312258862072, "b_arr_rate": 145.85319351763584, "lat": 30.4934867, "lng": -96.6220912, "minbr": 22.599244482735767, "manbr": 1.0603751076943468}, {"mabr": 5.758157389635317, "b": 521.0, "name": "Caldwell Police Department", "nb_arr_rate": 198.9952553725928, "ap_abbr": "Texas", "mibr": 142.0345489443378, "pct_black": 0.126949318, "p": 4104.0, "state": "TX", "arr_rate_disproportion": 2.613899260511531, "b_arr_rate": 520.1535508637236, "lat": 30.5313152, "lng": -96.7006241, "minbr": 51.35361428970137, "manbr": 1.6745743790120011}, {"mabr": 1.3054830287206267, "b": 766.0, "name": "Burnet County Sheriff's Office", "nb_arr_rate": 39.32450457317073, "ap_abbr": "Texas", "mibr": 11.74934725848564, "pct_black": 0.017918129, "p": 42750.0, "state": "TX", "arr_rate_disproportion": 2.257443467287015, "b_arr_rate": 88.77284595300262, "lat": 30.7896156, "lng": -98.2011948, "minbr": 5.883193597560975, "manbr": 0.547827743902439}, {"mabr": 3.0947775628626695, "b": 2585.0, "name": "Caldwell County Sheriff's Office", "nb_arr_rate": 53.38068261886643, "ap_abbr": "Texas", "mibr": 13.152804642166345, "pct_black": 0.06790837, "p": 38066.0, "state": "TX", "arr_rate_disproportion": 3.3698322504743685, "b_arr_rate": 179.88394584139266, "lat": 29.8404216, "lng": -97.631097, "minbr": 4.7349285533102226, "manbr": 0.845522955948254}, {"mabr": 7.5693860386879726, "b": 1189.0, "name": "Lockhart Police Department", "nb_arr_rate": 80.63254844035103, "ap_abbr": "Texas", "mibr": 26.91337258200168, "pct_black": 0.093636793, "p": 12698.0, "state": "TX", "arr_rate_disproportion": 1.6897512398132304, "b_arr_rate": 136.2489486963835, "lat": 29.878552, "lng": -97.6831056, "minbr": 17.464592927274307, "manbr": 2.1722130506560084}, {"mabr": 0.0, "b": 565.0, "name": "Calhoun County Sheriff's Office", "nb_arr_rate": 71.86779400461184, "ap_abbr": "Texas", "mibr": 8.849557522123895, "pct_black": 0.026425331, "p": 21381.0, "state": "TX", "arr_rate_disproportion": 1.5515214613600872, "b_arr_rate": 111.50442477876108, "lat": 28.4453662, "lng": -96.5833004, "minbr": 7.878554957724827, "manbr": 0.3843197540353574}, {"mabr": 0.0, "b": 2155.0, "name": "Cameron County Sheriff's Department", "nb_arr_rate": 17.071510771781767, "ap_abbr": "Texas", "mibr": 1.8561484918793505, "pct_black": 0.005305007, "p": 406220.0, "state": "TX", "arr_rate_disproportion": 0.706730960048274, "b_arr_rate": 12.064965197215779, "lat": 26.1029227, "lng": -97.4789584, "minbr": 3.7246482620370487, "manbr": 0.5815895957333598}, {"mabr": 0.0, "b": 709.0, "name": "Brownsville Police Department ", "nb_arr_rate": 94.20356368392672, "ap_abbr": "Texas", "mibr": 19.746121297602258, "pct_black": 0.004050896, "p": 175023.0, "state": "TX", "arr_rate_disproportion": 0.5390002086323636, "b_arr_rate": 50.77574047954866, "lat": 26.0183263, "lng": -97.4538263, "minbr": 24.088713471092397, "manbr": 3.2584875569374807}, {"mabr": 4.746835443037974, "b": 632.0, "name": "Harlingen Police Department", "nb_arr_rate": 134.2323683759752, "ap_abbr": "Texas", "mibr": 52.21518987341772, "pct_black": 0.009745717, "p": 64849.0, "state": "TX", "arr_rate_disproportion": 1.567751806220447, "b_arr_rate": 210.44303797468353, "lat": 26.191204, "lng": -97.6973825, "minbr": 40.45657691888441, "manbr": 3.7061837208215893}, {"mabr": 10.300429184549357, "b": 1165.0, "name": "Pittsburg Police Department", "nb_arr_rate": 110.14405762304922, "ap_abbr": "Texas", "mibr": 48.06866952789699, "pct_black": 0.259061597, "p": 4497.0, "state": "TX", "arr_rate_disproportion": 2.4158763200056135, "b_arr_rate": 266.09442060085837, "lat": 32.9986075, "lng": -94.9670625, "minbr": 21.90876350540216, "manbr": 2.100840336134454}, {"mabr": 1.881467544684854, "b": 5315.0, "name": "Cass County Sheriff's Office", "nb_arr_rate": 46.96011769851684, "ap_abbr": "Texas", "mibr": 4.139228598306679, "pct_black": 0.174468225, "p": 30464.0, "state": "TX", "arr_rate_disproportion": 2.0072676264115983, "b_arr_rate": 94.26152398871119, "lat": 33.0836979, "lng": -94.3575786, "minbr": 3.6184341325698837, "manbr": 0.9145492862539266}, {"mabr": 12.259194395796847, "b": 1713.0, "name": "Atlanta Police Department ", "nb_arr_rate": 159.51539626451287, "ap_abbr": "Texas", "mibr": 54.874489200233505, "pct_black": 0.30185022, "p": 5675.0, "state": "TX", "arr_rate_disproportion": 1.5041178035425302, "b_arr_rate": 239.92994746059543, "lat": 33.1132375, "lng": -94.1676101, "minbr": 32.81171125694094, "manbr": 5.047955577990914}, {"mabr": 9.401114206128135, "b": 2872.0, "name": "Chambers County Sheriff's Office", "nb_arr_rate": 70.69265143992057, "ap_abbr": "Texas", "mibr": 90.87743732590529, "pct_black": 0.081832687, "p": 35096.0, "state": "TX", "arr_rate_disproportion": 3.802406939577061, "b_arr_rate": 268.8022284122563, "lat": 29.7039331, "lng": -94.6688749, "minbr": 22.002234359483616, "manbr": 3.196375372393247}, {"mabr": 2.40064017071219, "b": 7498.0, "name": "Cherokee County Sheriff's Office", "nb_arr_rate": 25.26126375527718, "ap_abbr": "Texas", "mibr": 5.868231528407575, "pct_black": 0.147467794, "p": 50845.0, "state": "TX", "arr_rate_disproportion": 1.7317027006288435, "b_arr_rate": 43.74499866631101, "lat": 31.8438587, "lng": -95.156504, "minbr": 3.921840035065864, "manbr": 1.7994324866772786}, {"mabr": 12.919101814826208, "b": 3251.0, "name": "Jacksonville Police Department", "nb_arr_rate": 84.30000885504295, "ap_abbr": "Texas", "mibr": 39.98769609350969, "pct_black": 0.223528603, "p": 14544.0, "state": "TX", "arr_rate_disproportion": 2.3279630831108205, "b_arr_rate": 196.24730852045525, "lat": 31.9650687, "lng": -95.2620779, "minbr": 16.824581599220757, "manbr": 2.8336137430266537}, {"mabr": 4.0733197556008145, "b": 1473.0, "name": "Rusk Police Department", "nb_arr_rate": 132.66307013241783, "ap_abbr": "Texas", "mibr": 31.907671418873047, "pct_black": 0.265357593, "p": 5551.0, "state": "TX", "arr_rate_disproportion": 0.8494841842003883, "b_arr_rate": 112.69517990495586, "lat": 31.7977594, "lng": -95.1487576, "minbr": 40.951446787641004, "manbr": 3.1878371750858263}, {"mabr": 0.0, "b": 698.0, "name": "Childress County Sheriff's Office", "nb_arr_rate": 37.36402333280782, "ap_abbr": "Texas", "mibr": 5.730659025787966, "pct_black": 0.099133646, "p": 7041.0, "state": "TX", "arr_rate_disproportion": 1.8021411386360064, "b_arr_rate": 67.3352435530086, "lat": 34.5293372, "lng": -100.2083364, "minbr": 5.833201954910925, "manbr": 0.0}, {"mabr": 5.772005772005772, "b": 693.0, "name": "Childress Police Department", "nb_arr_rate": 65.77974870657798, "ap_abbr": "Texas", "mibr": 43.29004329004329, "pct_black": 0.113513514, "p": 6105.0, "state": "TX", "arr_rate_disproportion": 2.040128410914928, "b_arr_rate": 134.19913419913422, "lat": 34.4354518, "lng": -100.2823825, "minbr": 23.096821877309683, "manbr": 3.695491500369549}, {"mabr": 0.19582147107114345, "b": 66387.0, "name": "Collin County Sheriff's Office", "nb_arr_rate": 2.423340046986259, "ap_abbr": "Texas", "mibr": 0.28620061156551735, "pct_black": 0.084856859, "p": 782341.0, "state": "TX", "arr_rate_disproportion": 1.0442677811517298, "b_arr_rate": 2.530615933842469, "lat": 33.1938849, "lng": -96.5781528, "minbr": 0.37292898705782773, "manbr": 0.11872271123563805}, {"mabr": 2.1213406873143827, "b": 7071.0, "name": "Allen Police Department", "nb_arr_rate": 36.695821185617106, "ap_abbr": "Texas", "mibr": 21.071984160656203, "pct_black": 0.083932768, "p": 84246.0, "state": "TX", "arr_rate_disproportion": 2.1389248937531913, "b_arr_rate": 78.48960543063217, "lat": 33.1072239, "lng": -96.674676, "minbr": 12.685455134434726, "manbr": 0.49238743116294137}, {"mabr": 2.537266095781795, "b": 9459.0, "name": "Frisco Police Department", "nb_arr_rate": 36.41774388542732, "ap_abbr": "Texas", "mibr": 16.386510201924093, "pct_black": 0.080853756, "p": 116989.0, "state": "TX", "arr_rate_disproportion": 2.583638478024777, "b_arr_rate": 94.09028438524157, "lat": 33.1510284, "lng": -96.8192633, "minbr": 7.9233702222635545, "manbr": 0.5486840881614433}, {"mabr": 2.763435386517344, "b": 13751.0, "name": "McKinney Police Department", "nb_arr_rate": 23.703627967213674, "ap_abbr": "Texas", "mibr": 14.180786851865319, "pct_black": 0.104875798, "p": 131117.0, "state": "TX", "arr_rate_disproportion": 2.5709576000511514, "b_arr_rate": 60.941022471093014, "lat": 33.2012413, "lng": -96.6679795, "minbr": 6.330623860402501, "manbr": 0.5964248589881226}, {"mabr": 4.823069502969996, "b": 19697.0, "name": "Plano Police Department", "nb_arr_rate": 65.91045372776334, "ap_abbr": "Texas", "mibr": 30.30918413971671, "pct_black": 0.075804049, "p": 259841.0, "state": "TX", "arr_rate_disproportion": 3.775116132993318, "b_arr_rate": 248.81961720058894, "lat": 33.0507687, "lng": -96.747944, "minbr": 12.509161169964688, "manbr": 0.6329535611966154}, {"mabr": 2.723205602022953, "b": 5141.0, "name": "Wylie Police Department", "nb_arr_rate": 42.716199085046576, "ap_abbr": "Texas", "mibr": 6.613499319198599, "pct_black": 0.124097811, "p": 41427.0, "state": "TX", "arr_rate_disproportion": 1.2522541742224118, "b_arr_rate": 53.49153861116514, "lat": 33.0362477, "lng": -96.5150023, "minbr": 7.854268864024693, "manbr": 0.8543239817009315}, {"mabr": 2.075765438505449, "b": 1927.0, "name": "Murphy Police Department", "nb_arr_rate": 16.412141182434574, "ap_abbr": "Texas", "mibr": 6.227296315516346, "pct_black": 0.108820872, "p": 17708.0, "state": "TX", "arr_rate_disproportion": 1.7390646632992246, "b_arr_rate": 28.54177477944992, "lat": 33.0167845, "lng": -96.6085148, "minbr": 4.815917875926747, "manbr": 0.0}, {"mabr": 1.5822784810126582, "b": 632.0, "name": "Anna Police Department", "nb_arr_rate": 32.16489431534725, "ap_abbr": "Texas", "mibr": 22.151898734177216, "pct_black": 0.076615347, "p": 8249.0, "state": "TX", "arr_rate_disproportion": 2.066094032549729, "b_arr_rate": 66.45569620253164, "lat": 33.3474466, "lng": -96.5534355, "minbr": 9.583825653144283, "manbr": 1.8379939608769857}, {"mabr": 27.565084226646245, "b": 653.0, "name": "Columbus Police Department", "nb_arr_rate": 86.6089273817455, "ap_abbr": "Texas", "mibr": 36.75344563552833, "pct_black": 0.178659371, "p": 3655.0, "state": "TX", "arr_rate_disproportion": 2.6699375662622216, "b_arr_rate": 231.24042879019908, "lat": 29.702778, "lng": -96.5570572, "minbr": 29.313790806129248, "manbr": 3.9973351099267154}, {"mabr": 0.5790387955993052, "b": 1727.0, "name": "Comal County Sheriff's Office", "nb_arr_rate": 32.82589348447234, "ap_abbr": "Texas", "mibr": 13.317892298784018, "pct_black": 0.015921159, "p": 108472.0, "state": "TX", "arr_rate_disproportion": 2.857630819141595, "b_arr_rate": 93.80428488708743, "lat": 29.8030193, "lng": -98.2552006, "minbr": 6.735678486111762, "manbr": 0.8524989460864677}, {"mabr": 3.700277520814061, "b": 1081.0, "name": "New Braunfels Police Department", "nb_arr_rate": 101.02543285268007, "ap_abbr": "Texas", "mibr": 58.279370952821466, "pct_black": 0.018721857, "p": 57740.0, "state": "TX", "arr_rate_disproportion": 2.8752342571744594, "b_arr_rate": 290.4717853839038, "lat": 29.6993011, "lng": -98.1151091, "minbr": 24.762173705854323, "manbr": 1.4649040752572406}, {"mabr": 4.878048780487805, "b": 820.0, "name": "Gainesville Police Department", "nb_arr_rate": 100.57963377684099, "ap_abbr": "Texas", "mibr": 64.63414634146342, "pct_black": 0.051243595, "p": 16002.0, "state": "TX", "arr_rate_disproportion": 2.437093296276774, "b_arr_rate": 245.1219512195122, "lat": 33.6386474, "lng": -97.1484125, "minbr": 25.62244763535766, "manbr": 1.6466868660255565}, {"mabr": 0.08373105584861425, "b": 11943.0, "name": "Coryell County Sheriffs Office", "nb_arr_rate": 15.61982819765151, "ap_abbr": "Texas", "mibr": 0.5861173909402998, "pct_black": 0.158420438, "p": 75388.0, "state": "TX", "arr_rate_disproportion": 1.3562221595295445, "b_arr_rate": 21.183957129699404, "lat": 31.3911774, "lng": -97.7980223, "minbr": 0.7092757506501695, "manbr": 0.25218693356450467}, {"mabr": 5.548812207386856, "b": 5767.0, "name": "Copperas Cove Police Department", "nb_arr_rate": 76.71806586712354, "ap_abbr": "Texas", "mibr": 21.675047685104907, "pct_black": 0.180038711, "p": 32032.0, "state": "TX", "arr_rate_disproportion": 2.26248902263714, "b_arr_rate": 173.5737818623201, "lat": 31.1169615, "lng": -97.9143247, "minbr": 12.83076337331049, "manbr": 2.017894536455359}, {"mabr": 1.2678288431061808, "b": 3155.0, "name": "Gatesville Police Department", "nb_arr_rate": 83.6773578913941, "ap_abbr": "Texas", "mibr": 3.1695721077654517, "pct_black": 0.200304743, "p": 15751.0, "state": "TX", "arr_rate_disproportion": 0.34848212379374327, "b_arr_rate": 29.160063391442158, "lat": 31.4386673, "lng": -97.7460269, "minbr": 10.638297872340425, "manbr": 2.540489044140997}, {"mabr": 0.00946611132146914, "b": 528200.0, "name": "Dallas County Sheriff's Department", "nb_arr_rate": 0.17120132787010872, "ap_abbr": "Texas", "mibr": 0.07951533510034077, "pct_black": 0.22304434, "p": 2368139.0, "state": "TX", "arr_rate_disproportion": 1.658768323686915, "b_arr_rate": 0.2839833396440742, "lat": 32.7669866, "lng": -96.7784238, "minbr": 0.04945816138469808, "manbr": 0.00978293302114907}, {"mabr": 10.342598577892696, "b": 1547.0, "name": "Addison Police Department", "nb_arr_rate": 262.4033365192458, "ap_abbr": "Texas", "mibr": 199.0950226244344, "pct_black": 0.118489583, "p": 13056.0, "state": "TX", "arr_rate_disproportion": 2.9339458554690347, "b_arr_rate": 769.8771816418875, "lat": 32.9585082, "lng": -96.8369852, "minbr": 114.77973759666348, "manbr": 2.6066556607872102}, {"mabr": 9.035621198957429, "b": 5755.0, "name": "Balch Springs Police Department", "nb_arr_rate": 211.1500584209648, "ap_abbr": "Texas", "mibr": 33.362293657688966, "pct_black": 0.242540459, "p": 23728.0, "state": "TX", "arr_rate_disproportion": 1.6071844040068268, "b_arr_rate": 339.357080799305, "lat": 32.7139333, "lng": -96.6180523, "minbr": 32.15935013631559, "manbr": 4.618038168363657}, {"mabr": 4.099590040995901, "b": 10001.0, "name": "Carrollton Police Department", "nb_arr_rate": 67.33519102441886, "ap_abbr": "Texas", "mibr": 29.097090290970904, "pct_black": 0.083973568, "p": 119097.0, "state": "TX", "arr_rate_disproportion": 3.1347485452924895, "b_arr_rate": 211.07889211078893, "lat": 32.9883599, "lng": -96.8997702, "minbr": 14.950135660335851, "manbr": 0.8982914130673902}, {"mabr": 3.8063467624668545, "b": 23382.0, "name": "Cedar Hill Police Department", "nb_arr_rate": 50.03233853829807, "ap_abbr": "Texas", "mibr": 8.8957317594731, "pct_black": 0.519276894, "p": 45028.0, "state": "TX", "arr_rate_disproportion": 1.77885120176335, "b_arr_rate": 89.00008553588229, "lat": 32.5844599, "lng": -96.9588596, "minbr": 7.853645015245311, "manbr": 1.1549477963596047}, {"mabr": 3.468208092485549, "b": 1730.0, "name": "Coppell Police Department", "nb_arr_rate": 39.96858837228194, "ap_abbr": "Texas", "mibr": 38.15028901734104, "pct_black": 0.044750252, "p": 38659.0, "state": "TX", "arr_rate_disproportion": 4.410978351112991, "b_arr_rate": 176.30057803468208, "lat": 32.9633064, "lng": -96.9905565, "minbr": 12.456335129572965, "manbr": 0.6769747353028785}, {"mabr": 3.0908226343319063, "b": 33648.0, "name": "DeSoto Police Department", "nb_arr_rate": 33.24891226703033, "ap_abbr": "Texas", "mibr": 16.405135520684734, "pct_black": 0.686035843, "p": 49047.0, "state": "TX", "arr_rate_disproportion": 1.9843408690709696, "b_arr_rate": 65.97717546362338, "lat": 32.5993495, "lng": -96.8629405, "minbr": 6.104292486525099, "manbr": 0.9091499448016105}, {"mabr": 4.181913225300575, "b": 11478.0, "name": "Duncanville Police Department", "nb_arr_rate": 14.235007025068402, "ap_abbr": "Texas", "mibr": 5.2273915316257185, "pct_black": 0.297944139, "p": 38524.0, "state": "TX", "arr_rate_disproportion": 3.439635395098019, "b_arr_rate": 48.96323401289423, "lat": 32.6459498, "lng": -96.9138704, "minbr": 1.8117281668268874, "manbr": 0.5915847075353102}, {"mabr": 5.128205128205129, "b": 1365.0, "name": "Farmers Branch Police Department", "nb_arr_rate": 72.76797181754797, "ap_abbr": "Texas", "mibr": 87.91208791208791, "pct_black": 0.047700587, "p": 28616.0, "state": "TX", "arr_rate_disproportion": 4.1579295809250425, "b_arr_rate": 302.56410256410254, "lat": 32.9277892, "lng": -96.8785391, "minbr": 23.96242339730652, "manbr": 1.1375729331033724}, {"mabr": 8.641600970285022, "b": 32980.0, "name": "Garland Police Department", "nb_arr_rate": 61.61550521929282, "ap_abbr": "Texas", "mibr": 22.013341419041847, "pct_black": 0.145365751, "p": 226876.0, "state": "TX", "arr_rate_disproportion": 2.5067918580969324, "b_arr_rate": 154.45724681625228, "lat": 32.9098261, "lng": -96.6303571, "minbr": 13.821842637290093, "manbr": 1.7019433098155712}, {"mabr": 7.403221248940379, "b": 35390.0, "name": "Grand Prairie Police Department ", "nb_arr_rate": 56.75471051240661, "ap_abbr": "Texas", "mibr": 20.062164453235376, "pct_black": 0.20177199, "p": 175396.0, "state": "TX", "arr_rate_disproportion": 1.693261978086472, "b_arr_rate": 96.1005933879627, "lat": 32.6841931, "lng": -97.0209951, "minbr": 14.920789109038184, "manbr": 3.257003271288373}, {"mabr": 4.28163653663178, "b": 2102.0, "name": "Hutchins Police Department", "nb_arr_rate": 54.697156983930775, "ap_abbr": "Texas", "mibr": 9.514747859181732, "pct_black": 0.393780442, "p": 5338.0, "state": "TX", "arr_rate_disproportion": 1.4351142576077667, "b_arr_rate": 78.49666983824929, "lat": 32.6433922, "lng": -96.7098325, "minbr": 12.978986402966626, "manbr": 1.2360939431396787}, {"mabr": 9.011386773244855, "b": 26522.0, "name": "Irving Police Department", "nb_arr_rate": 87.4436153619156, "ap_abbr": "Texas", "mibr": 48.902797677399896, "pct_black": 0.122622405, "p": 216290.0, "state": "TX", "arr_rate_disproportion": 3.0614274557105174, "b_arr_rate": 267.7022848955584, "lat": 32.8577478, "lng": -96.9700224, "minbr": 20.240504194595506, "manbr": 1.9075924286497197}, {"mabr": 3.20038404608553, "b": 24997.0, "name": "Lancaster Police Department", "nb_arr_rate": 33.08694121788103, "ap_abbr": "Texas", "mibr": 13.921670600472057, "pct_black": 0.687467341, "p": 36361.0, "state": "TX", "arr_rate_disproportion": 1.6709503012701952, "b_arr_rate": 55.28663439612754, "lat": 32.5958887, "lng": -96.7779537, "minbr": 9.327701513551567, "manbr": 1.2319605772615276}, {"mabr": 6.451824195978254, "b": 30534.0, "name": "Mesquite Police Department", "nb_arr_rate": 62.32958184646353, "ap_abbr": "Texas", "mibr": 30.850854784830027, "pct_black": 0.218374528, "p": 139824.0, "state": "TX", "arr_rate_disproportion": 1.8437645205996793, "b_arr_rate": 114.92107159232332, "lat": 32.763903, "lng": -96.5924264, "minbr": 17.595388416140544, "manbr": 1.8025436910970811}, {"mabr": 11.519924767838251, "b": 8507.0, "name": "Richardson Police Department", "nb_arr_rate": 53.25411173332158, "ap_abbr": "Texas", "mibr": 61.36123192664864, "pct_black": 0.08573617, "p": 99223.0, "state": "TX", "arr_rate_disproportion": 4.485327156514865, "b_arr_rate": 238.86211355354416, "lat": 32.9722914, "lng": -96.7080688, "minbr": 19.599629613298646, "manbr": 1.322809647691697}, {"mabr": 1.1061946902654867, "b": 1808.0, "name": "Sachse Police Department", "nb_arr_rate": 43.8421251552292, "ap_abbr": "Texas", "mibr": 22.123893805309734, "pct_black": 0.088936987, "p": 20329.0, "state": "TX", "arr_rate_disproportion": 1.9554273017568333, "b_arr_rate": 85.73008849557522, "lat": 32.9690084, "lng": -96.5808825, "minbr": 13.768155067220992, "manbr": 1.0258625344203878}, {"mabr": 1.2057877813504823, "b": 2488.0, "name": "Seagoville Police Department", "nb_arr_rate": 48.02786101887098, "ap_abbr": "Texas", "mibr": 10.04823151125402, "pct_black": 0.167711493, "p": 14835.0, "state": "TX", "arr_rate_disproportion": 1.196719633668252, "b_arr_rate": 57.47588424437299, "lat": 32.6533835, "lng": -96.5450583, "minbr": 5.426419373127075, "manbr": 0.5669393374908884}, {"mabr": 2.4968789013732833, "b": 801.0, "name": "Wilmer Police Department", "nb_arr_rate": 58.3130857341201, "ap_abbr": "Texas", "mibr": 9.987515605493133, "pct_black": 0.217544813, "p": 3682.0, "state": "TX", "arr_rate_disproportion": 1.1346902681172344, "b_arr_rate": 66.16729088639201, "lat": 32.5990299, "lng": -96.6816064, "minbr": 19.090593543908366, "manbr": 1.0413051023950017}, {"mabr": 2.7918106886466365, "b": 7522.0, "name": "City Of Rowlett Police Department", "nb_arr_rate": 49.81818928857572, "ap_abbr": "Texas", "mibr": 15.022600372241424, "pct_black": 0.133845798, "p": 56199.0, "state": "TX", "arr_rate_disproportion": 2.0441252463563924, "b_arr_rate": 101.83461845253922, "lat": 32.9159218, "lng": -96.5486729, "minbr": 11.668755264293198, "manbr": 1.0888099102245414}, {"mabr": 6.024096385542169, "b": 5644.0, "name": "Glenn Heights Police Department", "nb_arr_rate": 66.02768903088392, "ap_abbr": "Texas", "mibr": 14.35152374202693, "pct_black": 0.500443341, "p": 11278.0, "state": "TX", "arr_rate_disproportion": 1.0867807091744586, "b_arr_rate": 71.75761871013465, "lat": 32.5512998, "lng": -96.8543876, "minbr": 6.922257720979766, "manbr": 2.839900603478878}, {"mabr": 0.0037864445285876558, "b": 528200.0, "name": "Dallas County Hospital District Police Department", "nb_arr_rate": 0.13478707718027608, "ap_abbr": "Texas", "mibr": 0.2025747822794396, "pct_black": 0.22304434, "p": 2368139.0, "state": "TX", "arr_rate_disproportion": 3.469367457646786, "b_arr_rate": 0.4676258992805755, "lat": 32.7669866, "lng": -96.7784238, "minbr": 0.08369842695871983, "manbr": 0.000543496278952726}, {"mabr": 0.0, "b": 905.0, "name": "Dawson County Sheriff's Office", "nb_arr_rate": 20.11138613861386, "ap_abbr": "Texas", "mibr": 7.734806629834254, "pct_black": 0.065423263, "p": 13833.0, "state": "TX", "arr_rate_disproportion": 2.5823034424139397, "b_arr_rate": 51.93370165745856, "lat": 32.7419338, "lng": -101.9473224, "minbr": 7.271039603960396, "manbr": 0.0}, {"mabr": 0.41416069434940755, "b": 55534.0, "name": "Denton County Sheriff's Office", "nb_arr_rate": 2.4016604071950978, "ap_abbr": "Texas", "mibr": 0.5942305614578457, "pct_black": 0.083810484, "p": 662614.0, "state": "TX", "arr_rate_disproportion": 1.9194173265152805, "b_arr_rate": 4.6097885979760145, "lat": 33.2050051, "lng": -97.119046, "minbr": 0.3492126243658167, "manbr": 0.18613691770442117}, {"mabr": 6.306459860235214, "b": 11734.0, "name": "Denton Police Department", "nb_arr_rate": 69.26777440014166, "ap_abbr": "Texas", "mibr": 38.43531617521732, "pct_black": 0.103489941, "p": 113383.0, "state": "TX", "arr_rate_disproportion": 1.9353138512993135, "b_arr_rate": 134.05488324527016, "lat": 33.2151391, "lng": -97.1416867, "minbr": 26.975179293450992, "manbr": 1.5150173636730317}, {"mabr": 4.7837913891755, "b": 10661.0, "name": "Lewisville Police Department", "nb_arr_rate": 60.735681622138976, "ap_abbr": "Texas", "mibr": 19.41656505018291, "pct_black": 0.111879526, "p": 95290.0, "state": "TX", "arr_rate_disproportion": 1.6911115900458307, "b_arr_rate": 102.71081512053279, "lat": 33.0465513, "lng": -96.9818258, "minbr": 15.372980893074478, "manbr": 1.0398326814685273}, {"mabr": 1.455604075691412, "b": 2061.0, "name": "Flower Mound Police Department", "nb_arr_rate": 23.096089956555073, "ap_abbr": "Texas", "mibr": 9.70402717127608, "pct_black": 0.031869984, "p": 64669.0, "state": "TX", "arr_rate_disproportion": 3.844453705549214, "b_arr_rate": 88.79184861717613, "lat": 33.037821, "lng": -97.1130044, "minbr": 2.571556350626118, "manbr": 0.38333759263991823}, {"mabr": 0.5408328826392644, "b": 3698.0, "name": "Little Elm Police Department", "nb_arr_rate": 10.405405405405405, "ap_abbr": "Texas", "mibr": 2.7041644131963225, "pct_black": 0.142790949, "p": 25898.0, "state": "TX", "arr_rate_disproportion": 1.1434752375801591, "b_arr_rate": 11.898323418063818, "lat": 33.1766896, "lng": -96.9290272, "minbr": 2.5225225225225225, "manbr": 0.7207207207207207}, {"mabr": 4.054054054054054, "b": 2960.0, "name": "The Colony Police Department", "nb_arr_rate": 47.68041237113402, "ap_abbr": "Texas", "mibr": 31.41891891891892, "pct_black": 0.08147985, "p": 36328.0, "state": "TX", "arr_rate_disproportion": 1.9910153396639885, "b_arr_rate": 94.93243243243244, "lat": 33.0896091, "lng": -96.903328, "minbr": 18.550707264444977, "manbr": 1.4385039558858788}, {"mabr": 7.005253940455342, "b": 1142.0, "name": "Corinth Police Department", "nb_arr_rate": 38.68461661256851, "ap_abbr": "Texas", "mibr": 28.896672504378287, "pct_black": 0.05728618, "p": 19935.0, "state": "TX", "arr_rate_disproportion": 2.331486062965381, "b_arr_rate": 90.19264448336253, "lat": 33.1437698, "lng": -97.072491, "minbr": 12.557867291012611, "manbr": 2.341297291544724}, {"mabr": 2.1321961620469083, "b": 1876.0, "name": "Dewitt County Sheriff's Office", "nb_arr_rate": 14.763185335601777, "ap_abbr": "Texas", "mibr": 2.1321961620469083, "pct_black": 0.093347266, "p": 20097.0, "state": "TX", "arr_rate_disproportion": 1.5886922265993453, "b_arr_rate": 23.454157782515992, "lat": 29.0823417, "lng": -97.3616556, "minbr": 1.4269249766752647, "manbr": 1.0976345974425115}, {"mabr": 16.393442622950822, "b": 1037.0, "name": "Cuero Police Department", "nb_arr_rate": 107.16747070985527, "ap_abbr": "Texas", "mibr": 32.786885245901644, "pct_black": 0.151586025, "p": 6841.0, "state": "TX", "arr_rate_disproportion": 1.529703231247694, "b_arr_rate": 163.9344262295082, "lat": 29.0944386, "lng": -97.2875588, "minbr": 28.945554789800138, "manbr": 5.685733976567884}, {"mabr": 1.302719426803452, "b": 6141.0, "name": "Ector County Sheriff's Office", "nb_arr_rate": 33.16309003046057, "ap_abbr": "Texas", "mibr": 6.839276990718124, "pct_black": 0.044782323, "p": 137130.0, "state": "TX", "arr_rate_disproportion": 1.2619409574807854, "b_arr_rate": 41.849861586060904, "lat": 31.8653008, "lng": -102.5425068, "minbr": 6.527265648260541, "manbr": 0.9542786035468627}, {"mabr": 8.368200836820083, "b": 5736.0, "name": "Odessa Police Department", "nb_arr_rate": 129.9838648040423, "ap_abbr": "Texas", "mibr": 60.14644351464435, "pct_black": 0.057394437, "p": 99940.0, "state": "TX", "arr_rate_disproportion": 2.615387375258623, "b_arr_rate": 339.9581589958159, "lat": 31.8803778, "lng": -102.3434058, "minbr": 33.650375780221644, "manbr": 2.4202793936563203}, {"mabr": 3.2636107402462544, "b": 13482.0, "name": "Ellis County Sheriff's Office", "nb_arr_rate": 17.454160789844853, "ap_abbr": "Texas", "mibr": 7.343124165554072, "pct_black": 0.090114297, "p": 149610.0, "state": "TX", "arr_rate_disproportion": 2.375519023494101, "b_arr_rate": 41.462690995401275, "lat": 32.3472789, "lng": -96.7983357, "minbr": 1.9173131170662905, "manbr": 1.6822402444757876}, {"mabr": 10.748560460652591, "b": 2605.0, "name": "Ennis Police Department", "nb_arr_rate": 84.54865476489817, "ap_abbr": "Texas", "mibr": 34.16506717850288, "pct_black": 0.140711932, "p": 18513.0, "state": "TX", "arr_rate_disproportion": 1.7843420930581022, "b_arr_rate": 150.8637236084453, "lat": 32.3259354, "lng": -96.6376414, "minbr": 22.31581594166457, "manbr": 2.703042494342469}, {"mabr": 6.116207951070336, "b": 654.0, "name": "Midlothian Police Department", "nb_arr_rate": 36.52994304780533, "ap_abbr": "Texas", "mibr": 25.99388379204893, "pct_black": 0.036258801, "p": 18037.0, "state": "TX", "arr_rate_disproportion": 3.767174745358665, "b_arr_rate": 137.61467889908258, "lat": 32.4700149, "lng": -96.9833614, "minbr": 9.837197261692458, "manbr": 0.5752746936662256}, {"mabr": 1.097694840834248, "b": 1822.0, "name": "Red Oak Police Department", "nb_arr_rate": 33.53079244439477, "ap_abbr": "Texas", "mibr": 8.781558726673984, "pct_black": 0.16918934, "p": 10769.0, "state": "TX", "arr_rate_disproportion": 1.685951335528723, "b_arr_rate": 56.531284302963776, "lat": 32.5081392, "lng": -96.7767918, "minbr": 7.488543645914832, "manbr": 0.8941544651838605}, {"mabr": 5.760670332547788, "b": 3819.0, "name": "City Of Waxahachie Police Department", "nb_arr_rate": 64.2585846058445, "ap_abbr": "Texas", "mibr": 21.47158942131448, "pct_black": 0.128928801, "p": 29621.0, "state": "TX", "arr_rate_disproportion": 2.2738058801289096, "b_arr_rate": 146.11154752553026, "lat": 32.4026743, "lng": -96.842674, "minbr": 14.068676846756066, "manbr": 1.744050848771413}, {"mabr": 0.12065637065637065, "b": 24864.0, "name": "El Paso County Sheriff's Office", "nb_arr_rate": 7.415733523420854, "ap_abbr": "Texas", "mibr": 1.3272200772200773, "pct_black": 0.031054884, "p": 800647.0, "state": "TX", "arr_rate_disproportion": 0.7592816830388531, "b_arr_rate": 5.63063063063063, "lat": 31.7664034, "lng": -106.2413905, "minbr": 1.4669050494790425, "manbr": 0.22944560527879573}, {"mabr": 9.542851949468327, "b": 22006.0, "name": "El Paso Police Department", "nb_arr_rate": 63.64382928171069, "ap_abbr": "Texas", "mibr": 24.675088612196674, "pct_black": 0.03390123, "p": 649121.0, "state": "TX", "arr_rate_disproportion": 1.974943906404141, "b_arr_rate": 125.69299282013996, "lat": 31.8483598, "lng": -106.426979, "minbr": 15.43576536998796, "manbr": 2.9005844223148864}, {"mabr": 4.048582995951417, "b": 2717.0, "name": "Marlin Police Department ", "nb_arr_rate": 37.23076923076923, "ap_abbr": "Texas", "mibr": 39.74972396025027, "pct_black": 0.455337691, "p": 5967.0, "state": "TX", "arr_rate_disproportion": 3.5786310253469886, "b_arr_rate": 133.23518586676482, "lat": 31.3080364, "lng": -96.8931726, "minbr": 13.846153846153847, "manbr": 0.6153846153846154}, {"mabr": 0.8650519031141869, "b": 2312.0, "name": "Fannin County Sheriff's Office", "nb_arr_rate": 23.89013701230896, "ap_abbr": "Texas", "mibr": 2.162629757785467, "pct_black": 0.068170426, "p": 33915.0, "state": "TX", "arr_rate_disproportion": 2.11826061550448, "b_arr_rate": 50.60553633217994, "lat": 33.5911611, "lng": -96.1049882, "minbr": 1.2340600575894694, "manbr": 0.9492769673765149}, {"mabr": 3.3333333333333335, "b": 1500.0, "name": "Bonham Police Department", "nb_arr_rate": 65.26022951199721, "ap_abbr": "Texas", "mibr": 8.666666666666666, "pct_black": 0.14811889, "p": 10127.0, "state": "TX", "arr_rate_disproportion": 1.1747838957963295, "b_arr_rate": 76.66666666666667, "lat": 33.5879438, "lng": -96.1902979, "minbr": 11.59151501101194, "manbr": 1.0432363509910745}, {"mabr": 1.2254901960784315, "b": 1632.0, "name": "Fayette County Sheriff's Office", "nb_arr_rate": 20.591571416106795, "ap_abbr": "Texas", "mibr": 15.318627450980394, "pct_black": 0.066465749, "p": 24554.0, "state": "TX", "arr_rate_disproportion": 4.255262857261549, "b_arr_rate": 87.62254901960785, "lat": 29.8778861, "lng": -96.9212309, "minbr": 4.71163074775325, "manbr": 0.13087863188203472}, {"mabr": 1.3829499753612362, "b": 125818.0, "name": "Fort Bend County Sheriff's Office", "nb_arr_rate": 6.628122300389288, "ap_abbr": "Texas", "mibr": 2.1856968001398847, "pct_black": 0.214935725, "p": 585375.0, "state": "TX", "arr_rate_disproportion": 1.9605795406964508, "b_arr_rate": 12.994960975377133, "lat": 29.5266017, "lng": -95.7710149, "minbr": 1.4361656987054925, "manbr": 0.3720974764827867}, {"mabr": 2.843433445885907, "b": 28135.0, "name": "Missouri City Police Department", "nb_arr_rate": 25.0618259694567, "ap_abbr": "Texas", "mibr": 10.449617913630709, "pct_black": 0.417693518, "p": 67358.0, "state": "TX", "arr_rate_disproportion": 2.574050126361762, "b_arr_rate": 64.51039630353651, "lat": 29.5651559, "lng": -95.5381747, "minbr": 5.175534762766744, "manbr": 0.4589144124620758}, {"mabr": 5.7115659209900045, "b": 2101.0, "name": "Richmond Police Department", "nb_arr_rate": 41.97118396324912, "ap_abbr": "Texas", "mibr": 15.230842455973345, "pct_black": 0.179895539, "p": 11679.0, "state": "TX", "arr_rate_disproportion": 2.528876322812401, "b_arr_rate": 106.13993336506425, "lat": 29.5815992, "lng": -95.7616559, "minbr": 7.621632908749217, "manbr": 1.9837126748799332}, {"mabr": 6.35541432412613, "b": 4091.0, "name": "Rosenberg Police Department", "nb_arr_rate": 154.55950540958267, "ap_abbr": "Texas", "mibr": 102.17550721095087, "pct_black": 0.133614214, "p": 30618.0, "state": "TX", "arr_rate_disproportion": 2.449775116108531, "b_arr_rate": 378.63603031043755, "lat": 29.5398707, "lng": -95.8112058, "minbr": 56.69695027707618, "manbr": 2.525728503034644}, {"mabr": 2.6771004942339376, "b": 4856.0, "name": "Stafford Police Department", "nb_arr_rate": 39.651008802679755, "ap_abbr": "Texas", "mibr": 23.27018121911038, "pct_black": 0.274458826, "p": 17693.0, "state": "TX", "arr_rate_disproportion": 1.9112385625463244, "b_arr_rate": 75.7825370675453, "lat": 29.6257301, "lng": -95.5657029, "minbr": 14.800965957778297, "manbr": 1.4021967749474176}, {"mabr": 6.492397061336067, "b": 5853.0, "name": "Sugar Land Police Department", "nb_arr_rate": 34.81168795570419, "ap_abbr": "Texas", "mibr": 36.5624466085768, "pct_black": 0.074260629, "p": 78817.0, "state": "TX", "arr_rate_disproportion": 4.8931840593221585, "b_arr_rate": 170.3399965829489, "lat": 29.5969266, "lng": -95.6294293, "minbr": 11.841456060522997, "manbr": 0.7675017817005647}, {"mabr": 5.637331663012841, "b": 3193.0, "name": "Freestone County Sheriff's Office ", "nb_arr_rate": 38.20008422065812, "ap_abbr": "Texas", "mibr": 10.335108048856874, "pct_black": 0.161132418, "p": 19816.0, "state": "TX", "arr_rate_disproportion": 1.8200768906392184, "b_arr_rate": 69.5270905104917, "lat": 31.701654, "lng": -96.1442374, "minbr": 5.835288455754076, "manbr": 2.2859892919448956}, {"mabr": 2.954209748892171, "b": 677.0, "name": "Fairfield Police Department", "nb_arr_rate": 115.21547933157431, "ap_abbr": "Texas", "mibr": 16.24815361890694, "pct_black": 0.229413758, "p": 2951.0, "state": "TX", "arr_rate_disproportion": 1.5256238231082344, "b_arr_rate": 175.77548005908417, "lat": 31.7174395, "lng": -96.170483, "minbr": 21.54793315743184, "manbr": 0.8795074758135444}, {"mabr": 14.771048744460856, "b": 677.0, "name": "Teague Police Department", "nb_arr_rate": 47.86680541103018, "ap_abbr": "Texas", "mibr": 25.110782865583456, "pct_black": 0.190168539, "p": 3560.0, "state": "TX", "arr_rate_disproportion": 2.4686917988568493, "b_arr_rate": 118.16838995568685, "lat": 31.6294871, "lng": -96.2808184, "minbr": 15.261879986125564, "manbr": 3.121748178980229}, {"mabr": 0.0, "b": 584.0, "name": "Frio County Sheriff's Office", "nb_arr_rate": 13.58744664221728, "ap_abbr": "Texas", "mibr": 0.0, "pct_black": 0.033919963, "p": 17217.0, "state": "TX", "arr_rate_disproportion": 0.6301142562734876, "b_arr_rate": 8.561643835616438, "lat": 28.8693343, "lng": -99.1087876, "minbr": 1.984007695545001, "manbr": 0.42085011723681837}, {"mabr": 3.814319904268049, "b": 40112.0, "name": "Galveston County Sheriff's Office", "nb_arr_rate": 34.78544727843087, "ap_abbr": "Texas", "mibr": 14.634024730753888, "pct_black": 0.137695711, "p": 291309.0, "state": "TX", "arr_rate_disproportion": 1.9443654043569285, "b_arr_rate": 67.63562026326287, "lat": 29.2287059, "lng": -94.8948647, "minbr": 11.00331612240592, "manbr": 0.9992157549652265}, {"mabr": 13.966480446927374, "b": 2148.0, "name": "Dickinson Police Department", "nb_arr_rate": 120.19114444713283, "ap_abbr": "Texas", "mibr": 73.09124767225326, "pct_black": 0.114989293, "p": 18680.0, "state": "TX", "arr_rate_disproportion": 2.6106770357416313, "b_arr_rate": 313.78026070763497, "lat": 29.4510747, "lng": -95.0561477, "minbr": 42.88652310670216, "manbr": 3.568836196467457}, {"mabr": 0.8116883116883117, "b": 1232.0, "name": "Friendswood Police Department", "nb_arr_rate": 77.5460619558615, "ap_abbr": "Texas", "mibr": 53.57142857142857, "pct_black": 0.034408602, "p": 35805.0, "state": "TX", "arr_rate_disproportion": 3.977527042148453, "b_arr_rate": 308.44155844155847, "lat": 29.5077011, "lng": -95.2006346, "minbr": 17.036415700112805, "manbr": 0.17354583056142076}, {"mabr": 12.793876435210498, "b": 9145.0, "name": "Galveston Police Department", "nb_arr_rate": 176.0453909528991, "ap_abbr": "Texas", "mibr": 101.47621651175506, "pct_black": 0.191546405, "p": 47743.0, "state": "TX", "arr_rate_disproportion": 2.6230871041365686, "b_arr_rate": 461.7823947512302, "lat": 29.1832602, "lng": -94.9697546, "minbr": 65.18472459712939, "manbr": 2.9794289859578216}, {"mabr": 7.462686567164178, "b": 2144.0, "name": "Hitchcock Police Department", "nb_arr_rate": 172.72161096117915, "ap_abbr": "Texas", "mibr": 107.27611940298507, "pct_black": 0.308001724, "p": 6961.0, "state": "TX", "arr_rate_disproportion": 1.679650500502296, "b_arr_rate": 290.1119402985074, "lat": 29.2826196, "lng": -95.0076307, "minbr": 64.35540793024704, "manbr": 4.359559892048993}, {"mabr": 11.07981220657277, "b": 5325.0, "name": "La Marque Police Department", "nb_arr_rate": 115.74477351916377, "ap_abbr": "Texas", "mibr": 50.328638497652584, "pct_black": 0.367013578, "p": 14509.0, "state": "TX", "arr_rate_disproportion": 2.1643865576652135, "b_arr_rate": 250.51643192488262, "lat": 29.3692168, "lng": -94.9960337, "minbr": 20.252613240418118, "manbr": 3.702090592334495}, {"mabr": 3.027245206861756, "b": 5946.0, "name": "League City Police Department", "nb_arr_rate": 58.40441157523127, "ap_abbr": "Texas", "mibr": 26.06794483686512, "pct_black": 0.071158449, "p": 83560.0, "state": "TX", "arr_rate_disproportion": 2.905498185782492, "b_arr_rate": 169.69391187352844, "lat": 29.4901042, "lng": -95.1091253, "minbr": 14.84268302110444, "manbr": 0.3994124771304146}, {"mabr": 38.889303575427334, "b": 13397.0, "name": "Texas City Police Department", "nb_arr_rate": 85.42047820326793, "ap_abbr": "Texas", "mibr": 33.4403224602523, "pct_black": 0.297057584, "p": 45099.0, "state": "TX", "arr_rate_disproportion": 2.1059472407731663, "b_arr_rate": 179.8910203776965, "lat": 29.4337172, "lng": -94.8926947, "minbr": 23.437007128887767, "manbr": 14.415494290581035}, {"mabr": 4.768392370572207, "b": 1468.0, "name": "Gonzales Police Department ", "nb_arr_rate": 10.033262446153008, "ap_abbr": "Texas", "mibr": 1.3623978201634879, "pct_black": 0.074115212, "p": 19807.0, "state": "TX", "arr_rate_disproportion": 1.8331395865418787, "b_arr_rate": 18.392370572207085, "lat": 29.4687041, "lng": -97.4777382, "minbr": 2.2902012105349256, "manbr": 0.7634004035116418}, {"mabr": 20.856201975850713, "b": 911.0, "name": "Gonzales Police Department", "nb_arr_rate": 103.8570976920645, "ap_abbr": "Texas", "mibr": 37.321624588364436, "pct_black": 0.12588089, "p": 7237.0, "state": "TX", "arr_rate_disproportion": 1.8496241606477233, "b_arr_rate": 192.0965971459934, "lat": 29.5125383, "lng": -97.4472364, "minbr": 24.027821688270627, "manbr": 7.429655390452102}, {"mabr": 0.0, "b": 1097.0, "name": "Gray County Sheriff's Office", "nb_arr_rate": 16.466088254501354, "ap_abbr": "Texas", "mibr": 3.6463081130355515, "pct_black": 0.048679831, "p": 22535.0, "state": "TX", "arr_rate_disproportion": 1.27330008960828, "b_arr_rate": 20.96627164995442, "lat": 35.4025424, "lng": -100.8123736, "minbr": 1.772553409833007, "manbr": 0.6063998507323445}, {"mabr": 13.445378151260504, "b": 595.0, "name": "Pampa Police Department", "nb_arr_rate": 69.54422667969423, "ap_abbr": "Texas", "mibr": 28.571428571428573, "pct_black": 0.033066578, "p": 17994.0, "state": "TX", "arr_rate_disproportion": 2.7550329884019726, "b_arr_rate": 191.5966386554622, "lat": 35.5476659, "lng": -100.9650339, "minbr": 11.954710040806942, "manbr": 2.4139318351629404}, {"mabr": 0.2824459822059031, "b": 7081.0, "name": "Grayson County Sheriff's Office", "nb_arr_rate": 42.03135435340433, "ap_abbr": "Texas", "mibr": 9.0382714305889, "pct_black": 0.05858021, "p": 120877.0, "state": "TX", "arr_rate_disproportion": 2.2646021634960687, "b_arr_rate": 95.18429600338935, "lat": 33.6245082, "lng": -96.6756986, "minbr": 3.945657140848536, "manbr": 0.37786916939083975}, {"mabr": 5.228136882129277, "b": 2104.0, "name": "Denison Police Department", "nb_arr_rate": 51.80289629701623, "ap_abbr": "Texas", "mibr": 41.82509505703422, "pct_black": 0.09276078, "p": 22682.0, "state": "TX", "arr_rate_disproportion": 1.8716747872363193, "b_arr_rate": 96.95817490494296, "lat": 33.7578222, "lng": -96.5652623, "minbr": 24.978131985615708, "manbr": 1.1176985129750219}, {"mabr": 10.550996483001173, "b": 4265.0, "name": "Sherman Police Department", "nb_arr_rate": 104.098552078468, "ap_abbr": "Texas", "mibr": 44.31418522860493, "pct_black": 0.110718829, "p": 38521.0, "state": "TX", "arr_rate_disproportion": 2.54515783099338, "b_arr_rate": 264.94724501758503, "lat": 33.6057332, "lng": -96.6219111, "minbr": 17.777907519850537, "manbr": 2.802428771602055}, {"mabr": 0.8200082000820008, "b": 24390.0, "name": "Gregg County Sheriff's Office", "nb_arr_rate": 11.803986028354222, "ap_abbr": "Texas", "mibr": 2.7060270602706025, "pct_black": 0.200361456, "p": 121730.0, "state": "TX", "arr_rate_disproportion": 1.6707235305599355, "b_arr_rate": 19.721197211972118, "lat": 32.4863971, "lng": -94.8162759, "minbr": 2.0649270597904255, "manbr": 0.4520238339839737}, {"mabr": 2.6455026455026456, "b": 1134.0, "name": "Gladewater Police Department", "nb_arr_rate": 92.51931411343507, "ap_abbr": "Texas", "mibr": 18.51851851851852, "pct_black": 0.176059618, "p": 6441.0, "state": "TX", "arr_rate_disproportion": 1.6775180767034132, "b_arr_rate": 155.20282186948856, "lat": 32.5433378, "lng": -94.9453176, "minbr": 15.828151498021482, "manbr": 2.638025249670247}, {"mabr": 5.139920045688179, "b": 1751.0, "name": "Kilgore Police Department", "nb_arr_rate": 178.9023521026372, "ap_abbr": "Texas", "mibr": 102.22729868646488, "pct_black": 0.13495183, "p": 12975.0, "state": "TX", "arr_rate_disproportion": 3.1794876462169603, "b_arr_rate": 568.8178183894918, "lat": 32.3978092, "lng": -94.8595892, "minbr": 43.032786885245905, "manbr": 2.0491803278688523}, {"mabr": 5.96109033761448, "b": 18453.0, "name": "Longview Police Department", "nb_arr_rate": 70.56223992774426, "ap_abbr": "Texas", "mibr": 24.874004226954966, "pct_black": 0.229358026, "p": 80455.0, "state": "TX", "arr_rate_disproportion": 1.9729894542892759, "b_arr_rate": 139.2185552484691, "lat": 32.5193054, "lng": -94.7648098, "minbr": 18.741330924808878, "manbr": 1.5160801264475339}, {"mabr": 0.9111617312072894, "b": 4390.0, "name": "Grimes County Sheriff's Office", "nb_arr_rate": 38.80435761231656, "ap_abbr": "Texas", "mibr": 10.933940774487473, "pct_black": 0.16501278, "p": 26604.0, "state": "TX", "arr_rate_disproportion": 1.6377936567499434, "b_arr_rate": 63.553530751708436, "lat": 30.5432314, "lng": -95.988082, "minbr": 9.588547762672189, "manbr": 0.40514990546502205}, {"mabr": 12.059369202226344, "b": 2156.0, "name": "Navasota Police Department", "nb_arr_rate": 55.79399141630901, "ap_abbr": "Texas", "mibr": 30.612244897959183, "pct_black": 0.305858987, "p": 7049.0, "state": "TX", "arr_rate_disproportion": 3.250428143285286, "b_arr_rate": 181.3543599257885, "lat": 30.3889784, "lng": -96.089076, "minbr": 9.605558961782137, "manbr": 5.7224606580829755}, {"mabr": 0.5874060150375939, "b": 8512.0, "name": "Guadalupe County Sheriffs Office", "nb_arr_rate": 27.466855252355288, "ap_abbr": "Texas", "mibr": 5.874060150375939, "pct_black": 0.064713798, "p": 131533.0, "state": "TX", "arr_rate_disproportion": 1.5611775976453415, "b_arr_rate": 42.88063909774436, "lat": 29.5832081, "lng": -97.9490268, "minbr": 4.869087391583551, "manbr": 0.5933946236821356}, {"mabr": 1.855287569573284, "b": 2695.0, "name": "Schertz Police Department", "nb_arr_rate": 40.45881126173097, "ap_abbr": "Texas", "mibr": 12.615955473098332, "pct_black": 0.085650723, "p": 31465.0, "state": "TX", "arr_rate_disproportion": 1.715022091310751, "b_arr_rate": 69.38775510204081, "lat": 29.5675115, "lng": -98.257626, "minbr": 8.342022940563087, "manbr": 1.6336461591936045}, {"mabr": 2.961500493583416, "b": 2026.0, "name": "Seguin Police Department", "nb_arr_rate": 101.8618514838654, "ap_abbr": "Texas", "mibr": 41.95459032576506, "pct_black": 0.080476663, "p": 25175.0, "state": "TX", "arr_rate_disproportion": 1.8655621534135964, "b_arr_rate": 190.02961500493586, "lat": 29.5888703, "lng": -97.9666045, "minbr": 23.543133612683054, "manbr": 1.3391507192535315}, {"mabr": 1.4058106841611997, "b": 2134.0, "name": "Cibolo Police Department", "nb_arr_rate": 23.079833522512295, "ap_abbr": "Texas", "mibr": 3.7488284910965324, "pct_black": 0.139031859, "p": 15349.0, "state": "TX", "arr_rate_disproportion": 1.5024659302164798, "b_arr_rate": 34.67666354264293, "lat": 29.5774926, "lng": -98.2365843, "minbr": 5.2213393870601585, "manbr": 1.0594021944759742}, {"mabr": 0.0, "b": 1925.0, "name": "Hale County Sheriff's Office", "nb_arr_rate": 14.353091883079074, "ap_abbr": "Texas", "mibr": 5.714285714285714, "pct_black": 0.053069776, "p": 36273.0, "state": "TX", "arr_rate_disproportion": 0.9772092410631964, "b_arr_rate": 14.025974025974026, "lat": 34.0684364, "lng": -101.8228878, "minbr": 4.367066495865844, "manbr": 0.3784790963083731}, {"mabr": 1.7361111111111112, "b": 1152.0, "name": "Plainview Police Department", "nb_arr_rate": 87.77682729778537, "ap_abbr": "Texas", "mibr": 36.458333333333336, "pct_black": 0.051905921, "p": 22194.0, "state": "TX", "arr_rate_disproportion": 1.9383121277747704, "b_arr_rate": 170.1388888888889, "lat": 34.1908983, "lng": -101.7234407, "minbr": 21.90856382473149, "manbr": 1.2356239901150081}, {"mabr": 1.252740369558409, "b": 3193.0, "name": "Hardin County Sheriff's Office", "nb_arr_rate": 43.25259515570934, "ap_abbr": "Texas", "mibr": 5.637331663012841, "pct_black": 0.05844239, "p": 54635.0, "state": "TX", "arr_rate_disproportion": 2.179492640150329, "b_arr_rate": 94.26871280927028, "lat": 30.3296124, "lng": -94.3931493, "minbr": 5.792931845573656, "manbr": 1.3607558026515298}, {"mabr": 4.997501249375313, "b": 2001.0, "name": "City of Silsbee Police Department ", "nb_arr_rate": 131.01952277657267, "ap_abbr": "Texas", "mibr": 40.47976011994003, "pct_black": 0.302677356, "p": 6611.0, "state": "TX", "arr_rate_disproportion": 1.1099665399088536, "b_arr_rate": 145.4272863568216, "lat": 30.3454911, "lng": -94.1767866, "minbr": 30.585683297180044, "manbr": 1.9522776572668112}, {"mabr": 1.0947888566226345, "b": 775492.0, "name": "Harris County Sheriff's Office", "nb_arr_rate": 13.311558420689744, "ap_abbr": "Texas", "mibr": 4.09804356460157, "pct_black": 0.189492919, "p": 4092459.0, "state": "TX", "arr_rate_disproportion": 2.314829376235115, "b_arr_rate": 30.813986475682537, "lat": 29.857273, "lng": -95.3930371, "minbr": 1.7292906441336318, "manbr": 0.3647910877618017}, {"mabr": 5.044590577425457, "b": 11101.0, "name": "Baytown Police Department", "nb_arr_rate": 135.08838404639133, "ap_abbr": "Texas", "mibr": 67.9218088460499, "pct_black": 0.154605721, "p": 71802.0, "state": "TX", "arr_rate_disproportion": 2.5613221067757026, "b_arr_rate": 346.0048644266282, "lat": 29.7569736, "lng": -94.9679552, "minbr": 35.0406088861798, "manbr": 1.136719329170854}, {"mabr": 0.0, "b": 745.0, "name": "Galena Park Police Department", "nb_arr_rate": 129.75744429106686, "ap_abbr": "Texas", "mibr": 32.214765100671144, "pct_black": 0.068430238, "p": 10887.0, "state": "TX", "arr_rate_disproportion": 2.120631974051937, "b_arr_rate": 275.1677852348993, "lat": 29.7451649, "lng": -95.234576, "minbr": 35.79175704989154, "manbr": 1.5775981068822718}, {"mabr": 9.157509157509159, "b": 3276.0, "name": "Humble Police Department", "nb_arr_rate": 279.834696803576, "ap_abbr": "Texas", "mibr": 124.23687423687424, "pct_black": 0.216480539, "p": 15133.0, "state": "TX", "arr_rate_disproportion": 1.6144190013991098, "b_arr_rate": 451.7704517704518, "lat": 29.988144, "lng": -95.2683101, "minbr": 96.3144134266678, "manbr": 3.1205195243316184}, {"mabr": 1.5847860538827259, "b": 631.0, "name": "Jersey Village Police Department", "nb_arr_rate": 85.1337816568894, "ap_abbr": "Texas", "mibr": 69.73058637083993, "pct_black": 0.082808399, "p": 7620.0, "state": "TX", "arr_rate_disproportion": 5.789340649096405, "b_arr_rate": 492.8684627575277, "lat": 29.8920304, "lng": -95.5675136, "minbr": 17.31292030333381, "manbr": 1.2877378738016885}, {"mabr": 0.47619047619047616, "b": 2100.0, "name": "La Porte Police Department", "nb_arr_rate": 97.88643533123029, "ap_abbr": "Texas", "mibr": 44.76190476190476, "pct_black": 0.062130178, "p": 33800.0, "state": "TX", "arr_rate_disproportion": 2.826404554731979, "b_arr_rate": 276.66666666666663, "lat": 29.6674177, "lng": -95.0491487, "minbr": 26.08832807570978, "manbr": 0.694006309148265}, {"mabr": 7.747489239598279, "b": 3485.0, "name": "Pasadena Police Department", "nb_arr_rate": 80.00934335453908, "ap_abbr": "Texas", "mibr": 78.62266857962697, "pct_black": 0.023382514, "p": 149043.0, "state": "TX", "arr_rate_disproportion": 3.1237384724060897, "b_arr_rate": 249.92826398852225, "lat": 29.6582634, "lng": -95.1504783, "minbr": 28.40104975336292, "manbr": 1.3465422718091757}, {"mabr": 10.279001468428781, "b": 681.0, "name": "Tomball Police Department", "nb_arr_rate": 163.12549642573472, "ap_abbr": "Texas", "mibr": 57.26872246696035, "pct_black": 0.063331163, "p": 10753.0, "state": "TX", "arr_rate_disproportion": 1.7463559639390356, "b_arr_rate": 284.87518355359765, "lat": 30.0973578, "lng": -95.6194098, "minbr": 24.027005559968227, "manbr": 2.6806989674344717}, {"mabr": 7.077140835102618, "b": 1413.0, "name": "Webster Police Department ", "nb_arr_rate": 490.04117057972627, "ap_abbr": "Texas", "mibr": 176.92852087756546, "pct_black": 0.135865385, "p": 10400.0, "state": "TX", "arr_rate_disproportion": 1.769136563106434, "b_arr_rate": 866.9497523000707, "lat": 29.5320724, "lng": -95.1164775, "minbr": 181.59563814398575, "manbr": 2.4479804161566707}, {"mabr": 8.086253369272237, "b": 742.0, "name": "Katy Police Department", "nb_arr_rate": 103.0688622754491, "ap_abbr": "Texas", "mibr": 48.517520215633425, "pct_black": 0.05261665, "p": 14102.0, "state": "TX", "arr_rate_disproportion": 5.308778997273263, "b_arr_rate": 547.1698113207548, "lat": 29.7913418, "lng": -95.8270091, "minbr": 18.7874251497006, "manbr": 0.8982035928143712}, {"mabr": 0.9723572718433116, "b": 14398.0, "name": "Harrison County Sheriff's Office", "nb_arr_rate": 32.537622235668415, "ap_abbr": "Texas", "mibr": 6.111959994443673, "pct_black": 0.219378038, "p": 65631.0, "state": "TX", "arr_rate_disproportion": 1.622279239109811, "b_arr_rate": 52.78510904292263, "lat": 32.5479928, "lng": -94.3744253, "minbr": 4.918704741084848, "manbr": 0.5855600882243867}, {"mabr": 8.538478598358838, "b": 9018.0, "name": "Marshall Police Department", "nb_arr_rate": 39.15891072044123, "ap_abbr": "Texas", "mibr": 5.877134619649589, "pct_black": 0.383369468, "p": 23523.0, "state": "TX", "arr_rate_disproportion": 2.845936647831098, "b_arr_rate": 111.44377910844976, "lat": 32.5391586, "lng": -94.353173, "minbr": 1.3788348845225784, "manbr": 2.55084453636677}, {"mabr": 0.541907514450867, "b": 5536.0, "name": "Hays County Sheriff's Office", "nb_arr_rate": 7.343093335796426, "ap_abbr": "Texas", "mibr": 0.0, "pct_black": 0.035237131, "p": 157107.0, "state": "TX", "arr_rate_disproportion": 0.8855791253135565, "b_arr_rate": 6.502890173410405, "lat": 30.0612247, "lng": -98.0292673, "minbr": 0.5739884278654888, "manbr": 0.5014151783652546}, {"mabr": 10.547667342799189, "b": 2465.0, "name": "San Marcos Police Department", "nb_arr_rate": 157.67517499823234, "ap_abbr": "Texas", "mibr": 45.030425963488845, "pct_black": 0.054907115, "p": 44894.0, "state": "TX", "arr_rate_disproportion": 1.479406761931617, "b_arr_rate": 233.26572008113592, "lat": 29.8768979, "lng": -97.9315698, "minbr": 55.36307714063494, "manbr": 3.1582172570647433}, {"mabr": 1.9267822736030829, "b": 1557.0, "name": "Kyle Police Department", "nb_arr_rate": 31.066933746551268, "ap_abbr": "Texas", "mibr": 5.780346820809249, "pct_black": 0.055575386, "p": 28016.0, "state": "TX", "arr_rate_disproportion": 0.9096318798862996, "b_arr_rate": 28.25947334617855, "lat": 30.0021024, "lng": -97.8636695, "minbr": 8.390339770966401, "manbr": 0.8692694357307532}, {"mabr": 2.6601186822181297, "b": 4887.0, "name": "Henderson County Sheriff's Office", "nb_arr_rate": 61.93224251476679, "ap_abbr": "Texas", "mibr": 7.98035604665439, "pct_black": 0.06222941, "p": 78532.0, "state": "TX", "arr_rate_disproportion": 2.0352678268396565, "b_arr_rate": 126.048700634336, "lat": 32.2116334, "lng": -95.8534183, "minbr": 4.806843641795098, "manbr": 1.059135039717564}, {"mabr": 6.6489361702127665, "b": 2256.0, "name": "Athens Police Department", "nb_arr_rate": 90.01339200306103, "ap_abbr": "Texas", "mibr": 49.64539007092199, "pct_black": 0.177498033, "p": 12710.0, "state": "TX", "arr_rate_disproportion": 2.605010325517595, "b_arr_rate": 234.4858156028369, "lat": 32.2048518, "lng": -95.8381409, "minbr": 17.313946814616415, "manbr": 1.2435431413812894}, {"mabr": 0.6565988181221274, "b": 4569.0, "name": "Hidalgo County Sheriff's Office", "nb_arr_rate": 20.54661126980005, "ap_abbr": "Texas", "mibr": 2.4075289997811335, "pct_black": 0.005897242, "p": 774769.0, "state": "TX", "arr_rate_disproportion": 1.0758705293624837, "b_arr_rate": 22.105493543444954, "lat": 26.3963839, "lng": -98.18099, "minbr": 2.2253960010386913, "manbr": 0.5011685276551545}, {"mabr": 0.8176614881439084, "b": 1223.0, "name": "City Of Edinburg Police Department", "nb_arr_rate": 77.54655560973681, "ap_abbr": "Texas", "mibr": 15.535568274734258, "pct_black": 0.015862516, "p": 77100.0, "state": "TX", "arr_rate_disproportion": 0.7275454369097175, "b_arr_rate": 56.418642681929676, "lat": 26.3143923, "lng": -98.1631962, "minbr": 24.302489555464767, "manbr": 3.0707592551102443}, {"mabr": 8.23045267489712, "b": 1215.0, "name": "McAllen Police Department", "nb_arr_rate": 112.84606177426124, "ap_abbr": "Texas", "mibr": 34.5679012345679, "pct_black": 0.009355005, "p": 129877.0, "state": "TX", "arr_rate_disproportion": 0.9846255098682951, "b_arr_rate": 111.1111111111111, "lat": 26.2185125, "lng": -98.2461453, "minbr": 31.687677791422487, "manbr": 2.759167430943091}, {"mabr": 0.0, "b": 521.0, "name": "Mission Police Department", "nb_arr_rate": 120.85657917085852, "ap_abbr": "Texas", "mibr": 0.0, "pct_black": 0.006761141, "p": 77058.0, "state": "TX", "arr_rate_disproportion": 0.0, "b_arr_rate": 0.0, "lat": 26.2026378, "lng": -98.32148, "minbr": 35.52530148816912, "manbr": 2.4824594640500672}, {"mabr": 0.44964028776978415, "b": 2224.0, "name": "Hill County Sheriff's Office", "nb_arr_rate": 45.549977179370146, "ap_abbr": "Texas", "mibr": 6.744604316546762, "pct_black": 0.063381687, "p": 35089.0, "state": "TX", "arr_rate_disproportion": 3.0403793197906603, "b_arr_rate": 138.4892086330935, "lat": 31.9822401, "lng": -97.1298856, "minbr": 4.6249809828084585, "manbr": 1.1866727521679599}, {"mabr": 7.317073170731708, "b": 1230.0, "name": "Hillsboro Police Department", "nb_arr_rate": 91.6136174923886, "ap_abbr": "Texas", "mibr": 19.51219512195122, "pct_black": 0.145458846, "p": 8456.0, "state": "TX", "arr_rate_disproportion": 3.07051310392258, "b_arr_rate": 281.3008130081301, "lat": 32.0077359, "lng": -97.1150405, "minbr": 13.700525878771105, "manbr": 3.1829504566841957}, {"mabr": 0.0, "b": 837.0, "name": "Hockley County Sheriff's Office", "nb_arr_rate": 11.85627658611639, "ap_abbr": "Texas", "mibr": 2.3894862604540026, "pct_black": 0.036494441, "p": 22935.0, "state": "TX", "arr_rate_disproportion": 1.7130701250376208, "b_arr_rate": 20.31063321385902, "lat": 33.605932, "lng": -102.3433978, "minbr": 1.4028418861435423, "manbr": 0.36202371255317223}, {"mabr": 14.450867052023122, "b": 692.0, "name": "Levelland Police Department", "nb_arr_rate": 97.04280155642023, "ap_abbr": "Texas", "mibr": 39.01734104046243, "pct_black": 0.051100281, "p": 13542.0, "state": "TX", "arr_rate_disproportion": 2.3081406937343267, "b_arr_rate": 223.9884393063584, "lat": 33.5808653, "lng": -102.363813, "minbr": 13.77431906614786, "manbr": 5.136186770428016}, {"mabr": 2.4164317358034633, "b": 2483.0, "name": "Hopkins County Sheriff's Office", "nb_arr_rate": 71.11818348736153, "ap_abbr": "Texas", "mibr": 26.580749093838097, "pct_black": 0.070618014, "p": 35161.0, "state": "TX", "arr_rate_disproportion": 2.825811386620066, "b_arr_rate": 200.96657269432137, "lat": 33.1489586, "lng": -95.5651936, "minbr": 7.650407001652488, "manbr": 1.285268376277618}, {"mabr": 4.587155963302752, "b": 1962.0, "name": "Sulphur Springs Police Department", "nb_arr_rate": 71.9952546897012, "ap_abbr": "Texas", "mibr": 60.142711518858306, "pct_black": 0.126998511, "p": 15449.0, "state": "TX", "arr_rate_disproportion": 2.272490921745922, "b_arr_rate": 163.6085626911315, "lat": 33.1431078, "lng": -95.6147023, "minbr": 25.209460962408244, "manbr": 1.0380366278638689}, {"mabr": 0.809192425958893, "b": 6179.0, "name": "Houston County Sheriff's Department", "nb_arr_rate": 29.62456560132171, "ap_abbr": "Texas", "mibr": 3.8841236446026866, "pct_black": 0.260365751, "p": 23732.0, "state": "TX", "arr_rate_disproportion": 1.5132461687850909, "b_arr_rate": 44.82926039812267, "lat": 31.3230362, "lng": -95.4215995, "minbr": 3.247308152452572, "manbr": 0.6266735031048823}, {"mabr": 3.3478406427854033, "b": 2987.0, "name": "Crockett Police Department", "nb_arr_rate": 53.999495331819325, "ap_abbr": "Texas", "mibr": 39.50451958486776, "pct_black": 0.429784173, "p": 6950.0, "state": "TX", "arr_rate_disproportion": 2.2443141463475684, "b_arr_rate": 121.1918312688316, "lat": 31.3171107, "lng": -95.4565857, "minbr": 21.95306585919758, "manbr": 0.25233409033560433}, {"mabr": 1.8340210912425492, "b": 2181.0, "name": "Howard County Sheriff's Office", "nb_arr_rate": 34.0531814443666, "ap_abbr": "Texas", "mibr": 4.5850527281063735, "pct_black": 0.062292928, "p": 35012.0, "state": "TX", "arr_rate_disproportion": 1.144473042924788, "b_arr_rate": 38.97294818890417, "lat": 32.3035834, "lng": -101.4385304, "minbr": 6.030885443635588, "manbr": 0.5787213304498797}, {"mabr": 5.652378709373528, "b": 2123.0, "name": "Big Spring Police Department", "nb_arr_rate": 119.59934814579276, "ap_abbr": "Texas", "mibr": 51.34243994347621, "pct_black": 0.077816876, "p": 27282.0, "state": "TX", "arr_rate_disproportion": 1.4650894232047145, "b_arr_rate": 175.22373999057936, "lat": 32.2383411, "lng": -101.485739, "minbr": 47.17993560952343, "manbr": 2.5835685043125722}, {"mabr": 6.307339449541284, "b": 1744.0, "name": "Commerce Police Department", "nb_arr_rate": 98.83170192611304, "ap_abbr": "Texas", "mibr": 44.15137614678899, "pct_black": 0.215895024, "p": 8078.0, "state": "TX", "arr_rate_disproportion": 1.9087679895653193, "b_arr_rate": 188.64678899082568, "lat": 33.2410155, "lng": -95.8998321, "minbr": 27.78654878433849, "manbr": 1.2630249447426587}, {"mabr": 7.706679121905651, "b": 4282.0, "name": "Greenville Police Department", "nb_arr_rate": 58.895417156286726, "ap_abbr": "Texas", "mibr": 42.5035030359645, "pct_black": 0.167547052, "p": 25557.0, "state": "TX", "arr_rate_disproportion": 2.1452064787620406, "b_arr_rate": 126.34283045305932, "lat": 33.1119028, "lng": -96.1084447, "minbr": 17.438307873090483, "manbr": 1.5041128084606346}, {"mabr": 3.584229390681003, "b": 558.0, "name": "Hutchinson County Sheriff's Office", "nb_arr_rate": 51.4542423119674, "ap_abbr": "Texas", "mibr": 8.960573476702509, "pct_black": 0.025191874, "p": 22150.0, "state": "TX", "arr_rate_disproportion": 2.8560017292051785, "b_arr_rate": 146.95340501792114, "lat": 35.837047, "lng": -101.3627461, "minbr": 2.5935531678399406, "manbr": 0.833642089662838}, {"mabr": 1.0121457489878543, "b": 988.0, "name": "Jackson County Sheriff's Office", "nb_arr_rate": 16.65775196760144, "ap_abbr": "Texas", "mibr": 8.097165991902834, "pct_black": 0.070195382, "p": 14075.0, "state": "TX", "arr_rate_disproportion": 2.0658823310923746, "b_arr_rate": 34.412955465587046, "lat": 28.9598019, "lng": -96.58908, "minbr": 2.597998013295637, "manbr": 0.8405287690074119}, {"mabr": 2.4813895781637716, "b": 806.0, "name": "Edna Police Department", "nb_arr_rate": 102.27999147666739, "ap_abbr": "Texas", "mibr": 57.07196029776674, "pct_black": 0.146572104, "p": 5499.0, "state": "TX", "arr_rate_disproportion": 2.0257728494623652, "b_arr_rate": 207.19602977667492, "lat": 28.9751254, "lng": -96.6484643, "minbr": 24.07841466013211, "manbr": 2.1308331557639035}, {"mabr": 3.5240812216814903, "b": 5959.0, "name": "Jasper County Sheriff's Office", "nb_arr_rate": 49.91428859534133, "ap_abbr": "Texas", "mibr": 4.027521396207417, "pct_black": 0.166872025, "p": 35710.0, "state": "TX", "arr_rate_disproportion": 1.5330861899749297, "b_arr_rate": 76.52290652794093, "lat": 30.7529323, "lng": -94.0222943, "minbr": 4.369601021814392, "manbr": 4.033477866290209}, {"mabr": 9.193357058125741, "b": 3372.0, "name": "Jasper Police Department", "nb_arr_rate": 172.5936462778568, "ap_abbr": "Texas", "mibr": 61.09134045077106, "pct_black": 0.444268775, "p": 7590.0, "state": "TX", "arr_rate_disproportion": 1.2474531696061946, "b_arr_rate": 215.30249110320287, "lat": 30.922681, "lng": -93.9932506, "minbr": 55.71360834518729, "manbr": 3.793266951161688}, {"mabr": 0.011724566484154248, "b": 85291.0, "name": "Jefferson County Sheriff's Office", "nb_arr_rate": 11.348528583919224, "ap_abbr": "Texas", "mibr": 2.837345089165328, "pct_black": 0.338090085, "p": 252273.0, "state": "TX", "arr_rate_disproportion": 0.8130775505208941, "b_arr_rate": 9.227233823029394, "lat": 29.8539997, "lng": -94.1493306, "minbr": 3.1500401240852307, "manbr": 0.10779604987363907}, {"mabr": 6.490139636337631, "b": 55931.0, "name": "Beaumont Police Department", "nb_arr_rate": 84.13372885432534, "ap_abbr": "Texas", "mibr": 36.956249664765515, "pct_black": 0.472805505, "p": 118296.0, "state": "TX", "arr_rate_disproportion": 2.2729960055161627, "b_arr_rate": 191.2356296150614, "lat": 30.0843427, "lng": -94.1457737, "minbr": 23.82746732943157, "manbr": 1.731740559608755}, {"mabr": 6.006006006006006, "b": 666.0, "name": "Groves Police Department", "nb_arr_rate": 44.256363871301204, "ap_abbr": "Texas", "mibr": 22.52252252252252, "pct_black": 0.041253717, "p": 16144.0, "state": "TX", "arr_rate_disproportion": 5.6658687884965255, "b_arr_rate": 250.75075075075074, "lat": 29.9459705, "lng": -93.9166563, "minbr": 7.042253521126761, "manbr": 1.0983331179738984}, {"mabr": 2.8449502133712663, "b": 703.0, "name": "Nederland Police Department", "nb_arr_rate": 37.40204227024459, "ap_abbr": "Texas", "mibr": 15.647226173541965, "pct_black": 0.040063829, "p": 17547.0, "state": "TX", "arr_rate_disproportion": 2.5861771545982077, "b_arr_rate": 96.72830725462305, "lat": 29.9708531, "lng": -94.0002407, "minbr": 9.973877938731892, "manbr": 0.4749465685110425}, {"mabr": 6.021623101135897, "b": 21921.0, "name": "Port Arthur Police Department", "nb_arr_rate": 74.08220208797066, "ap_abbr": "Texas", "mibr": 34.12253090643675, "pct_black": 0.407317255, "p": 53818.0, "state": "TX", "arr_rate_disproportion": 1.7814522595208435, "b_arr_rate": 131.97390629989508, "lat": 29.8334015, "lng": -93.9663195, "minbr": 24.76721948772612, "manbr": 1.097281876038499}, {"mabr": 2.764513696908771, "b": 3979.0, "name": "Johnson County Sheriff's Office", "nb_arr_rate": 31.445000170120103, "ap_abbr": "Texas", "mibr": 9.298818798693139, "pct_black": 0.026362516, "p": 150934.0, "state": "TX", "arr_rate_disproportion": 2.437666554866414, "b_arr_rate": 76.65242523247046, "lat": 32.3795112, "lng": -97.3648234, "minbr": 4.232588207274335, "manbr": 1.7012010479398456}, {"mabr": 4.640371229698376, "b": 862.0, "name": "Burleson Police Department", "nb_arr_rate": 34.3865133415206, "ap_abbr": "Texas", "mibr": 13.921113689095128, "pct_black": 0.02349414, "p": 36690.0, "state": "TX", "arr_rate_disproportion": 3.6435803175942385, "b_arr_rate": 125.29002320185614, "lat": 32.51872, "lng": -97.340903, "minbr": 8.20587250195378, "manbr": 1.032711845483979}, {"mabr": 20.930232558139533, "b": 1290.0, "name": "Cleburne Police Department", "nb_arr_rate": 139.08795949655934, "ap_abbr": "Texas", "mibr": 47.286821705426355, "pct_black": 0.043971776, "p": 29337.0, "state": "TX", "arr_rate_disproportion": 2.190348926631812, "b_arr_rate": 304.65116279069764, "lat": 32.3525724, "lng": -97.4091922, "minbr": 29.62883730880308, "manbr": 3.4941348450814704}, {"mabr": 1.4524328249818446, "b": 1377.0, "name": "Karnes County Sheriff's Office", "nb_arr_rate": 26.474306536774, "ap_abbr": "Texas", "mibr": 6.5359477124183005, "pct_black": 0.092889908, "p": 14824.0, "state": "TX", "arr_rate_disproportion": 0.7680676931613261, "b_arr_rate": 20.334059549745824, "lat": 28.9076175, "lng": -97.8607669, "minbr": 4.461961775860787, "manbr": 0.5949282367814382}, {"mabr": 0.9319664492078285, "b": 10730.0, "name": "Kaufman County Sheriff's Office", "nb_arr_rate": 19.455841071042972, "ap_abbr": "Texas", "mibr": 5.964585274930102, "pct_black": 0.103821964, "p": 103350.0, "state": "TX", "arr_rate_disproportion": 1.207121009792371, "b_arr_rate": 23.485554520037276, "lat": 32.598944, "lng": -96.2883777, "minbr": 3.3470092852515654, "manbr": 1.0580868063053337}, {"mabr": 2.734107997265892, "b": 1463.0, "name": "Forney Police Department", "nb_arr_rate": 56.447946658584634, "ap_abbr": "Texas", "mibr": 23.23991797676008, "pct_black": 0.099788555, "p": 14661.0, "state": "TX", "arr_rate_disproportion": 2.591321500823444, "b_arr_rate": 146.27477785372523, "lat": 32.750376, "lng": -96.452591, "minbr": 13.789968176996515, "manbr": 1.0607667828458858}, {"mabr": 18.3206106870229, "b": 655.0, "name": "Kaufman Police Department", "nb_arr_rate": 124.17328042328042, "ap_abbr": "Texas", "mibr": 93.1297709923664, "pct_black": 0.09771744, "p": 6703.0, "state": "TX", "arr_rate_disproportion": 2.8893383885099766, "b_arr_rate": 358.77862595419845, "lat": 32.5778509, "lng": -96.311983, "minbr": 36.37566137566137, "manbr": 2.314814814814815}, {"mabr": 11.759280608715702, "b": 4337.0, "name": "Terrell Police Department", "nb_arr_rate": 127.71147312483667, "ap_abbr": "Texas", "mibr": 59.02697717316118, "pct_black": 0.274215984, "p": 15816.0, "state": "TX", "arr_rate_disproportion": 1.7584888555313096, "b_arr_rate": 224.57920221351165, "lat": 32.730305, "lng": -96.2870104, "minbr": 38.41798066033627, "manbr": 2.7005836745361096}, {"mabr": 0.0, "b": 884.0, "name": "Kerr County Sheriff's Office", "nb_arr_rate": 51.72236925791428, "ap_abbr": "Texas", "mibr": 11.312217194570136, "pct_black": 0.017813602, "p": 49625.0, "state": "TX", "arr_rate_disproportion": 3.215042062960723, "b_arr_rate": 166.289592760181, "lat": 30.0539275, "lng": -99.351968, "minbr": 6.216532282882993, "manbr": 0.9642805851336657}, {"mabr": 2.911208151382824, "b": 687.0, "name": "Kerrville Police Department", "nb_arr_rate": 182.36380424746076, "ap_abbr": "Texas", "mibr": 43.66812227074235, "pct_black": 0.030742382, "p": 22347.0, "state": "TX", "arr_rate_disproportion": 2.043358576087557, "b_arr_rate": 372.63464337700145, "lat": 30.0383169, "lng": -99.1310688, "minbr": 46.81440443213297, "manbr": 2.0775623268698062}, {"mabr": 0.832639467110741, "b": 1201.0, "name": "Kleberg County Sheriff's Office", "nb_arr_rate": 58.91121192482178, "ap_abbr": "Texas", "mibr": 32.472939217318896, "pct_black": 0.037459842, "p": 32061.0, "state": "TX", "arr_rate_disproportion": 1.6112535483356827, "b_arr_rate": 94.92089925062447, "lat": 27.4387348, "lng": -97.6606203, "minbr": 18.276085547634477, "manbr": 0.9073233959818535}, {"mabr": 11.294526498696785, "b": 1151.0, "name": "Kingsville Police Department", "nb_arr_rate": 119.06471949565078, "ap_abbr": "Texas", "mibr": 34.75238922675934, "pct_black": 0.043909511, "p": 26213.0, "state": "TX", "arr_rate_disproportion": 1.583438925936882, "b_arr_rate": 188.5317115551694, "lat": 27.509201, "lng": -97.8610283, "minbr": 32.95826350650387, "manbr": 3.271885723405953}, {"mabr": 0.4475607936744741, "b": 6703.0, "name": "Lamar County Sheriff's Office", "nb_arr_rate": 16.593177071246227, "ap_abbr": "Texas", "mibr": 1.3426823810234223, "pct_black": 0.134617316, "p": 49793.0, "state": "TX", "arr_rate_disproportion": 0.8900951353584504, "b_arr_rate": 14.769506191257646, "lat": 33.6672628, "lng": -95.5703477, "minbr": 2.413553028544906, "manbr": 0.6033882571362265}, {"mabr": 9.182111885733718, "b": 5881.0, "name": "Paris City Police Department", "nb_arr_rate": 94.91964748574391, "ap_abbr": "Texas", "mibr": 38.93895595987077, "pct_black": 0.23364189, "p": 25171.0, "state": "TX", "arr_rate_disproportion": 1.5728496855205152, "b_arr_rate": 149.29433769767047, "lat": 33.6681441, "lng": -95.5439795, "minbr": 26.23120787973043, "manbr": 2.2809745982374285}, {"mabr": 0.0, "b": 598.0, "name": "Lamb County Sheriff's Office", "nb_arr_rate": 14.57508034980193, "ap_abbr": "Texas", "mibr": 1.6722408026755853, "pct_black": 0.042784575, "p": 13977.0, "state": "TX", "arr_rate_disproportion": 1.4915273132664437, "b_arr_rate": 21.73913043478261, "lat": 34.0688615, "lng": -102.3480182, "minbr": 2.8402720681665294, "manbr": 0.5232080125569923}, {"mabr": 0.0, "b": 632.0, "name": "Lampasas County Sheriff's Office", "nb_arr_rate": 34.60225781044893, "ap_abbr": "Texas", "mibr": 4.746835443037974, "pct_black": 0.032118717, "p": 19677.0, "state": "TX", "arr_rate_disproportion": 0.6859141199746452, "b_arr_rate": 23.734177215189874, "lat": 31.1967308, "lng": -98.2408885, "minbr": 3.465476503019165, "manbr": 0.10501443948542924}, {"mabr": 1.5372790161414298, "b": 1301.0, "name": "Lavaca County Sheriff's Office", "nb_arr_rate": 19.652599933192295, "ap_abbr": "Texas", "mibr": 9.223674096848578, "pct_black": 0.067538805, "p": 19263.0, "state": "TX", "arr_rate_disproportion": 3.5982432341214974, "b_arr_rate": 70.71483474250577, "lat": 29.3825778, "lng": -96.9236334, "minbr": 2.449615855695357, "manbr": 0.3897116134060795}, {"mabr": 1.669449081803005, "b": 599.0, "name": "Yoakum Police Department", "nb_arr_rate": 31.82515337423313, "ap_abbr": "Texas", "mibr": 21.702838063439067, "pct_black": 0.103009458, "p": 5815.0, "state": "TX", "arr_rate_disproportion": 3.6195265201037876, "b_arr_rate": 115.19198664440735, "lat": 29.2932037, "lng": -97.1470102, "minbr": 10.927914110429448, "manbr": 0.19171779141104295}, {"mabr": 5.534034311012729, "b": 1807.0, "name": "Lee County Sheriff's Office", "nb_arr_rate": 13.441404930766634, "ap_abbr": "Texas", "mibr": 9.96126175982291, "pct_black": 0.108776788, "p": 16612.0, "state": "TX", "arr_rate_disproportion": 3.746610751599725, "b_arr_rate": 50.35971223021583, "lat": 30.3211046, "lng": -96.976365, "minbr": 3.2421479229989867, "manbr": 0.40526849037487334}, {"mabr": 20.689655172413794, "b": 580.0, "name": "Giddings Police Department", "nb_arr_rate": 110.20692862125087, "ap_abbr": "Texas", "mibr": 86.20689655172414, "pct_black": 0.118828109, "p": 4881.0, "state": "TX", "arr_rate_disproportion": 2.5500618361705225, "b_arr_rate": 281.0344827586207, "lat": 30.182965, "lng": -96.9292803, "minbr": 37.898163217856315, "manbr": 3.952569169960474}, {"mabr": 1.663893510815308, "b": 1202.0, "name": "Leon County Sheriff's Office", "nb_arr_rate": 47.567151740496186, "ap_abbr": "Texas", "mibr": 39.93344425956739, "pct_black": 0.071543361, "p": 16801.0, "state": "TX", "arr_rate_disproportion": 4.057666692081033, "b_arr_rate": 193.0116472545757, "lat": 31.3004925, "lng": -95.9956219, "minbr": 10.385281107763317, "manbr": 1.0898134495801013}, {"mabr": 2.316508168739332, "b": 8202.0, "name": "Liberty County Sheriff's Office", "nb_arr_rate": 24.539968268560667, "ap_abbr": "Texas", "mibr": 7.802974884174591, "pct_black": 0.10843039, "p": 75643.0, "state": "TX", "arr_rate_disproportion": 1.0135295274676945, "b_arr_rate": 24.87198244330651, "lat": 30.1621885, "lng": -94.8226815, "minbr": 5.1007547337672925, "manbr": 2.061060779051319}, {"mabr": 14.634146341463415, "b": 1845.0, "name": "Cleveland Police Department ", "nb_arr_rate": 173.41337907375643, "ap_abbr": "Texas", "mibr": 37.94037940379404, "pct_black": 0.24039088, "p": 7675.0, "state": "TX", "arr_rate_disproportion": 1.018916578878944, "b_arr_rate": 176.69376693766938, "lat": 30.33903, "lng": -95.1001615, "minbr": 46.65523156089194, "manbr": 3.7735849056603774}, {"mabr": 7.604562737642586, "b": 1315.0, "name": "Dayton Police Department", "nb_arr_rate": 112.02969461785052, "ap_abbr": "Texas", "mibr": 83.65019011406845, "pct_black": 0.181579674, "p": 7242.0, "state": "TX", "arr_rate_disproportion": 2.240036190388932, "b_arr_rate": 250.95057034220534, "lat": 30.0366594, "lng": -94.8986329, "minbr": 40.492660705247175, "manbr": 2.193352454867555}, {"mabr": 13.404825737265416, "b": 1119.0, "name": "Liberty Police Department ", "nb_arr_rate": 82.30283044792526, "ap_abbr": "Texas", "mibr": 31.27792672028597, "pct_black": 0.133261879, "p": 8397.0, "state": "TX", "arr_rate_disproportion": 2.225917189954661, "b_arr_rate": 183.1992850759607, "lat": 30.0489928, "lng": -94.7912664, "minbr": 23.63286617202528, "manbr": 5.3586150041220115}, {"mabr": 1.2186205215695833, "b": 4103.0, "name": "Limestone County Sheriff's Office", "nb_arr_rate": 33.66007987137597, "ap_abbr": "Texas", "mibr": 8.286619546673167, "pct_black": 0.175461854, "p": 23384.0, "state": "TX", "arr_rate_disproportion": 1.317815856487436, "b_arr_rate": 44.35778698513283, "lat": 31.5475427, "lng": -96.593623, "minbr": 5.445775634043877, "manbr": 2.230174783465588}, {"mabr": 9.142857142857142, "b": 875.0, "name": "Groesbeck Police Department", "nb_arr_rate": 45.178105994787146, "ap_abbr": "Texas", "mibr": 8.0, "pct_black": 0.202171904, "p": 4328.0, "state": "TX", "arr_rate_disproportion": 1.9478461538461538, "b_arr_rate": 88.0, "lat": 31.5256229, "lng": -96.5280615, "minbr": 9.26730379380249, "manbr": 2.027222704894295}, {"mabr": 15.209125475285171, "b": 2367.0, "name": "Mexia Police Department ", "nb_arr_rate": 132.3644933228594, "ap_abbr": "Texas", "mibr": 44.35994930291508, "pct_black": 0.317334763, "p": 7459.0, "state": "TX", "arr_rate_disproportion": 1.4745931634153586, "b_arr_rate": 195.18377693282636, "lat": 31.6806823, "lng": -96.4831306, "minbr": 37.706205813040064, "manbr": 4.32050274941084}, {"mabr": 3.9840637450199203, "b": 502.0, "name": "Live Oak County Sheriff's Office", "nb_arr_rate": 30.01178710671865, "ap_abbr": "Texas", "mibr": 13.944223107569721, "pct_black": 0.043534819, "p": 11531.0, "state": "TX", "arr_rate_disproportion": 2.2567494372961328, "b_arr_rate": 67.72908366533865, "lat": 28.3515349, "lng": -98.1269608, "minbr": 9.97370568501224, "manbr": 1.360050775228942}, {"mabr": 0.3340969835815196, "b": 20952.0, "name": "Lubbock County Sheriff's Office", "nb_arr_rate": 8.213154231247987, "ap_abbr": "Texas", "mibr": 1.7182130584192439, "pct_black": 0.07514229, "p": 278831.0, "state": "TX", "arr_rate_disproportion": 1.9409350515103367, "b_arr_rate": 15.941198930889652, "lat": 33.6114688, "lng": -101.8199438, "minbr": 1.3378367373845874, "manbr": 0.15898929342831328}, {"mabr": 9.772484348755537, "b": 19647.0, "name": "Lubbock Police Department", "nb_arr_rate": 64.57513600030488, "ap_abbr": "Texas", "mibr": 46.82648750445361, "pct_black": 0.085580621, "p": 229573.0, "state": "TX", "arr_rate_disproportion": 2.788664408966383, "b_arr_rate": 180.07838346821399, "lat": 33.5664787, "lng": -101.8866773, "minbr": 17.501405257090592, "manbr": 2.662843097091356}, {"mabr": 0.3739177956107803, "b": 34767.0, "name": "McLennan County Sheriff's Office", "nb_arr_rate": 12.491318533619134, "ap_abbr": "Texas", "mibr": 1.9558777001179277, "pct_black": 0.148003882, "p": 234906.0, "state": "TX", "arr_rate_disproportion": 1.2802632841487618, "b_arr_rate": 15.992176489199528, "lat": 31.549493, "lng": -97.2014721, "minbr": 1.6688401560915165, "manbr": 0.4796666316909748}, {"mabr": 41.498559077809794, "b": 1735.0, "name": "Bellmead Police Department", "nb_arr_rate": 283.49253000244914, "ap_abbr": "Texas", "mibr": 38.040345821325644, "pct_black": 0.175234825, "p": 9901.0, "state": "TX", "arr_rate_disproportion": 1.7626983524315174, "b_arr_rate": 499.7118155619596, "lat": 31.6014269, "lng": -97.0890421, "minbr": 31.104579965711487, "manbr": 18.858682341415626}, {"mabr": 7.860262008733624, "b": 1145.0, "name": "Hewitt Police Department", "nb_arr_rate": 49.177684617865204, "ap_abbr": "Texas", "mibr": 14.847161572052402, "pct_black": 0.084508082, "p": 13549.0, "state": "TX", "arr_rate_disproportion": 2.379749445200086, "b_arr_rate": 117.03056768558952, "lat": 31.4535014, "lng": -97.1953395, "minbr": 8.70686875201548, "manbr": 1.3705256368913254}, {"mabr": 6.731488406881077, "b": 1337.0, "name": "Lacy Lakeview Police Department ", "nb_arr_rate": 110.44254658385093, "ap_abbr": "Texas", "mibr": 23.93418100224383, "pct_black": 0.206040992, "p": 6489.0, "state": "TX", "arr_rate_disproportion": 2.3635108898683277, "b_arr_rate": 261.03216155572176, "lat": 31.6292692, "lng": -97.1050504, "minbr": 11.451863354037267, "manbr": 3.8819875776397517}, {"mabr": 10.761096216860292, "b": 26856.0, "name": "Waco Police Department", "nb_arr_rate": 106.65754627408141, "ap_abbr": "Texas", "mibr": 31.05451295799821, "pct_black": 0.215183687, "p": 124805.0, "state": "TX", "arr_rate_disproportion": 2.746827804012018, "b_arr_rate": 292.9699136133452, "lat": 31.5601108, "lng": -97.1860267, "minbr": 18.5913077213652, "manbr": 2.7667459596320536}, {"mabr": 2.5744759102611257, "b": 2719.0, "name": "Madison County Sheriff's Office", "nb_arr_rate": 45.13476473275468, "ap_abbr": "Texas", "mibr": 17.653549098933432, "pct_black": 0.198990047, "p": 13664.0, "state": "TX", "arr_rate_disproportion": 1.6623014236300855, "b_arr_rate": 75.02758367046708, "lat": 30.9668782, "lng": -95.9303719, "minbr": 9.227957971676565, "manbr": 1.3704888076747372}, {"mabr": 3.1201248049921997, "b": 1282.0, "name": "Madisonville Police Department", "nb_arr_rate": 115.28580603725113, "ap_abbr": "Texas", "mibr": 36.661466458658346, "pct_black": 0.291628753, "p": 4396.0, "state": "TX", "arr_rate_disproportion": 1.6103233544383555, "b_arr_rate": 185.64742589703587, "lat": 30.9540179, "lng": -95.9092854, "minbr": 22.15799614643545, "manbr": 1.6056518946692357}, {"mabr": 7.741935483870967, "b": 2325.0, "name": "Marion County Sheriff's Office", "nb_arr_rate": 109.23245347281353, "ap_abbr": "Texas", "mibr": 17.204301075268816, "pct_black": 0.220462735, "p": 10546.0, "state": "TX", "arr_rate_disproportion": 1.2718265201044134, "b_arr_rate": 138.92473118279568, "lat": 32.7977571, "lng": -94.3576733, "minbr": 14.840043790293151, "manbr": 9.487896849531687}, {"mabr": 19.76284584980237, "b": 759.0, "name": "Jefferson Police Department", "nb_arr_rate": 136.59985152190052, "ap_abbr": "Texas", "mibr": 75.09881422924902, "pct_black": 0.36039886, "p": 2106.0, "state": "TX", "arr_rate_disproportion": 1.6782522770235435, "b_arr_rate": 229.2490118577075, "lat": 32.7630091, "lng": -94.3508345, "minbr": 54.93689680772086, "manbr": 2.969561989606533}, {"mabr": 4.0476190476190474, "b": 4200.0, "name": "Matagorda County Sheriff's Office", "nb_arr_rate": 38.24380038151498, "ap_abbr": "Texas", "mibr": 8.333333333333332, "pct_black": 0.114435181, "p": 36702.0, "state": "TX", "arr_rate_disproportion": 1.8054591426272846, "b_arr_rate": 69.04761904761905, "lat": 28.7833407, "lng": -95.9977554, "minbr": 8.645621807888745, "manbr": 2.5229216663589935}, {"mabr": 11.00070972320795, "b": 2818.0, "name": "Bay City Police Department", "nb_arr_rate": 141.93025141930252, "ap_abbr": "Texas", "mibr": 80.55358410220013, "pct_black": 0.159986375, "p": 17614.0, "state": "TX", "arr_rate_disproportion": 2.297732941295752, "b_arr_rate": 326.1178140525195, "lat": 28.9815595, "lng": -95.9621066, "minbr": 37.17220870505542, "manbr": 1.7572316842389835}, {"mabr": 0.9881422924901185, "b": 1012.0, "name": "Medina County Sheriff's Office", "nb_arr_rate": 17.402320309374584, "ap_abbr": "Texas", "mibr": 2.9644268774703555, "pct_black": 0.021997131, "p": 46006.0, "state": "TX", "arr_rate_disproportion": 1.0788620841094605, "b_arr_rate": 18.774703557312254, "lat": 29.3536614, "lng": -99.1110846, "minbr": 4.111659332355425, "manbr": 0.8890074232119838}, {"mabr": 0.0, "b": 696.0, "name": "Hondo Police Department", "nb_arr_rate": 111.5085728382879, "ap_abbr": "Texas", "mibr": 4.310344827586207, "pct_black": 0.079063956, "p": 8803.0, "state": "TX", "arr_rate_disproportion": 0.12884943037330893, "b_arr_rate": 14.367816091954024, "lat": 29.3542424, "lng": -99.1618457, "minbr": 26.76699148883681, "manbr": 3.4538053533982978}, {"mabr": 0.6602839220864972, "b": 9087.0, "name": "Midland County Sheriff's Office", "nb_arr_rate": 24.77599092225222, "ap_abbr": "Texas", "mibr": 8.803785627819963, "pct_black": 0.066390496, "p": 136872.0, "state": "TX", "arr_rate_disproportion": 1.8877190944475044, "b_arr_rate": 46.77011114779355, "lat": 31.8708957, "lng": -102.0243264, "minbr": 6.111828461869546, "manbr": 0.30520014086160346}, {"mabr": 9.894234049812352, "b": 8793.0, "name": "Midland Police Department", "nb_arr_rate": 73.04062371768568, "ap_abbr": "Texas", "mibr": 65.73410667576482, "pct_black": 0.079111447, "p": 111147.0, "state": "TX", "arr_rate_disproportion": 2.637617767964047, "b_arr_rate": 192.65324690094394, "lat": 32.0299306, "lng": -102.1096969, "minbr": 30.130722785626357, "manbr": 2.999394259139848}, {"mabr": 0.4043671653861707, "b": 2473.0, "name": "Milam County Sheriff's Office", "nb_arr_rate": 36.25919942559684, "ap_abbr": "Texas", "mibr": 7.6829761423372425, "pct_black": 0.09989094, "p": 24757.0, "state": "TX", "arr_rate_disproportion": 2.431163496454781, "b_arr_rate": 88.1520420541852, "lat": 30.791242, "lng": -96.9843946, "minbr": 5.699156345359899, "manbr": 1.1667564171602944}, {"mabr": 6.227758007117437, "b": 1124.0, "name": "Cameron Police Department", "nb_arr_rate": 82.42999096657633, "ap_abbr": "Texas", "mibr": 23.131672597864767, "pct_black": 0.202449568, "p": 5552.0, "state": "TX", "arr_rate_disproportion": 2.3205284453761026, "b_arr_rate": 191.28113879003556, "lat": 30.8607357, "lng": -96.9768325, "minbr": 16.034327009936767, "manbr": 3.1616982836495033}, {"mabr": 9.370816599732262, "b": 747.0, "name": "Rockdale Police Department", "nb_arr_rate": 215.14026402640263, "ap_abbr": "Texas", "mibr": 78.98259705488621, "pct_black": 0.133512064, "p": 5595.0, "state": "TX", "arr_rate_disproportion": 1.9724997785966492, "b_arr_rate": 424.36412315930386, "lat": 30.6544336, "lng": -97.0089796, "minbr": 35.272277227722775, "manbr": 1.6501650165016502}, {"mabr": 0.0, "b": 1060.0, "name": "Mitchell County Sheriff's Office", "nb_arr_rate": 60.05034160373966, "ap_abbr": "Texas", "mibr": 12.264150943396226, "pct_black": 0.11272998, "p": 9403.0, "state": "TX", "arr_rate_disproportion": 1.3510676759688172, "b_arr_rate": 81.13207547169812, "lat": 32.3037809, "lng": -100.9245797, "minbr": 6.951935754524751, "manbr": 0.5993048064245475}, {"mabr": 4.63893613731251, "b": 19401.0, "name": "Montgomery County Sheriff's Office", "nb_arr_rate": 45.138594460805095, "ap_abbr": "Texas", "mibr": 14.071439616514613, "pct_black": 0.042569765, "p": 455746.0, "state": "TX", "arr_rate_disproportion": 2.610382075366822, "b_arr_rate": 117.82897788773775, "lat": 30.3023644, "lng": -95.5035226, "minbr": 8.6651617412827, "manbr": 1.0817128648202683}, {"mabr": 7.403581267217631, "b": 5808.0, "name": "Conroe Police Department", "nb_arr_rate": 88.77160261116292, "ap_abbr": "Texas", "mibr": 30.81955922865014, "pct_black": 0.103332325, "p": 56207.0, "state": "TX", "arr_rate_disproportion": 1.9938498345506515, "b_arr_rate": 176.99724517906336, "lat": 30.3160172, "lng": -95.4699931, "minbr": 22.857596380880572, "manbr": 1.369074783229826},